"station_id","name","capacity","num_bikes_available","num_docks_available","last_reported","lat","lon","is_installed","is_renting","is_returning"
"7000","Fort York  Blvd / Capreol Ct",47,32,12,1751972876,43.639832,-79.395954,1,1,1
"7001","Wellesley Station Green P",23,11,8,1751972869,43.6649641599074,-79.3835503152689,1,1,1
"7002","St. George St / Bloor St W",19,4,15,1751972908,43.6671312183185,-79.3995550638237,1,1,1
"7003","Madison Ave / Bloor St W",15,1,13,1751972973,43.6670183046547,-79.4027958687172,1,1,1
"7006","Bay St / College St (East Side)",31,0,28,1751972998,43.660439,-79.385525,1,1,1
"7007","College St / Huron St",19,3,16,1751972872,43.658148,-79.398167,1,1,1
"7008","Wellesley St W / Queen's Park Cres",18,0,17,1751973010,43.663376,-79.392125,1,1,1
"7009","King St E / Jarvis St",25,19,3,1751972847,43.650325,-79.372287,1,1,1
"7012","Elizabeth St / Edward St (Bus Terminal)",15,0,15,1751972879,43.656026,-79.385327,1,1,1
"7013","Scott St / The Esplanade",19,13,4,1751972957,43.6465966317044,-79.3753091386799,1,1,1
"7014","Sherbourne St / Carlton St (Allan Gardens)",17,11,4,1751972935,43.663102,-79.373181,1,1,1
"7015","King St W / Bay St (West Side)",38,0,37,1751972879,43.64852,-79.380576,1,1,1
"7016","Bay St / Queens Quay W (Ferry Terminal)",35,7,25,1751973015,43.640978,-79.376785,1,1,1
"7017","Widmer St / Adelaide St W - SMART",12,2,8,1751972940,43.6475476347592,-79.3915520049629,1,1,1
"7018","Bremner Blvd / Rees St",49,26,17,1751973006,43.641529,-79.386741,1,1,1
"7019","Temperance St Station",55,3,52,1751972862,43.650945,-79.379498,1,1,1
"7020","Phoebe St / Spadina Ave",32,20,10,1751972950,43.650033,-79.396555,1,1,1
"7021","Bay St / Albert St",63,4,58,1751972878,43.653264,-79.382458,1,1,1
"7022","Simcoe St / Queen St W",39,5,31,1751972861,43.65049,-79.3873,1,1,1
"7023","College St / Borden St",11,1,9,1751973014,43.6571,-79.4056,1,1,1
"7024","Dundonald St / Church St",39,20,17,1751972888,43.66663,-79.38148,1,1,1
"7025","Ted Rogers Way / Bloor St E",23,15,6,1751972918,43.671293,-79.380471,1,1,1
"7026","Bay St / St. Joseph St",15,5,10,1751972917,43.665527,-79.387499,1,1,1
"7027","Beverley St / Dundas St W",31,0,25,1751972962,43.652823,-79.393388,1,1,1
"7028","Gould St / Mutual St",30,16,11,1751972977,43.6582,-79.3768,1,1,1
"7029","Bay St / Bloor St W (East Side)",15,0,15,1751972887,43.66943,-79.38915,1,1,1
"7030","Bay St / Wellesley St W",35,13,21,1751972936,43.664088,-79.387095,1,1,1
"7031","Jarvis St / Isabella St",23,20,3,1751972918,43.668991,-79.379385,1,1,1
"7032","Augusta Ave / Dundas St W",15,4,7,1751972898,43.652473,-79.401456,1,1,1
"7034","Church St / Bloor St E",15,5,7,1751972855,43.671389,-79.382919,1,1,1
"7035","Queen St W / Ossington Ave",31,28,1,1751972896,43.643975,-79.419576,1,1,1
"7036","Trinity St /Front St E",19,18,0,1751972857,43.651318,-79.36023,1,1,1
"7037","Bathurst St / Dundas St W",27,17,8,1751972955,43.6518918789007,-79.4057786171272,1,1,1
"7038","Dundas St W / Yonge St",31,4,24,1751973017,43.656094,-79.381484,1,1,1
"7039","Simcoe St / Michael Sweet Ave",20,4,15,1751972925,43.652327224103,-79.3882538196087,1,1,1
"7040","Euclid Ave / Bloor St W",19,2,14,1751972940,43.664467,-79.414783,1,1,1
"7041","Edward St / Yonge St",23,0,23,1751972993,43.656729,-79.382736,1,1,1
"7042","Sherbourne St / Wellesley St E",31,14,13,1751972876,43.6673,-79.374,1,1,1
"7043","Queens Quay W / Lower Simcoe St",19,5,12,1751972883,43.63951,-79.383717,1,1,1
"7044","Church St / Alexander St",35,21,12,1751973018,43.663722,-79.380288,1,1,1
"7045","Bond St / Queen St E",37,8,26,1751972967,43.653236,-79.376716,1,1,1
"7046","Niagara St / Richmond St W",42,31,10,1751972973,43.64534,-79.409597,1,1,1
"7047","University Ave / Gerrard St W (East Side)",25,11,11,1751972845,43.657763,-79.389165,1,1,1
"7048","Front St W / Yonge St (Hockey Hall of Fame)",47,6,39,1751972853,43.646144,-79.377962,1,1,1
"7049","Portland St / Queen St W",15,11,1,1751972959,43.6476,-79.4015,1,1,1
"7050","Richmond St E / Jarvis St Green P",16,8,5,1751972917,43.652634,-79.374222,1,1,1
"7052","Wellington St W / Bay St",55,21,32,1751972950,43.647259,-79.379878,1,1,1
"7053","Metro Hall Plaza",27,5,20,1751972930,43.645859,-79.38783,1,1,1
"7054","Navy Wharf Crt / Bremner Blvd",11,0,9,1751972975,43.640722,-79.391051,1,1,1
"7055","Jarvis St / Carlton St",15,11,2,1751972938,43.66207,-79.37617,1,1,1
"7057","Simcoe St / Wellington St W South",27,6,18,1751973006,43.6458569,-79.3853654,1,1,1
"7059","Front St W / Blue Jays Way",15,2,8,1751972908,43.643473,-79.390477,1,1,1
"7061","Dalton Rd / Bloor St W",15,0,11,1751972934,43.6662942,-79.4066433,1,1,1
"7063","Queen's Park / Bloor St W",23,1,21,1751972942,43.668456,-79.393899,1,1,1
"7064","51 Parliament St",19,19,0,1751972895,43.652169,-79.362841,1,1,1
"7065","Dundas St E / Parliament St",15,7,7,1751972861,43.659575,-79.365769,1,1,1
"7066","Willcocks St / St. George St",15,2,12,1751972860,43.662085,-79.397735,1,1,1
"7068","Blantyre Park",22,13,8,1751973020,43.6830689,-79.279682,1,1,1
"7069","Queen St W / Spadina Ave",11,6,4,1751972988,43.649147,-79.395504,1,1,1
"7070","25 York St – Union Station South",11,10,1,1751972952,43.643667,-79.380414,1,1,1
"7071","161 Bleecker St (South of Wellesley)",23,3,20,1751972928,43.666233,-79.373327,1,1,1
"7073","Spadina Ave / Fort York Blvd",23,5,14,1751972952,43.640114,-79.393249,1,1,1
"7075","Queens Quay W / Dan Leckie Way",27,22,2,1751972978,43.636533,-79.395854,1,1,1
"7076","York St / Queens Quay W",57,18,38,1751972875,43.640132,-79.380464,1,1,1
"7077","College Park South",19,2,16,1751972928,43.65945682499,-79.3823646686478,1,1,1
"7078","College St / Major St",15,1,11,1751972871,43.6576,-79.4032,1,1,1
"7079","McGill St / Church St",19,10,6,1751973016,43.660694,-79.379052,1,1,1
"7083","Danforth Ave / Barrington Ave",15,5,9,1751972979,43.688325,-79.300463,1,1,1
"7084","High Park - Grenadier Cafe",11,3,6,1751972949,43.645599,-79.4657123,1,1,1
"7085","Danforth Ave / Westlake Ave",15,2,13,1751972918,43.687323,-79.304848,1,1,1
"7086","High Park - West Rd",23,0,21,1751972939,43.651922,-79.465693,1,1,1
"7087","Danforth Ave / Aldridge Ave",11,5,6,1751972930,43.684758,-79.316767,1,1,1
"7088","Danforth Ave / Coxwell Ave",15,11,4,1751972886,43.683378,-79.322961,1,1,1
"7089","Church St  / Wood St",27,26,1,1751972889,43.662712,-79.379903,1,1,1
"7090","Danforth Ave / Lamb Ave",18,11,5,1751972953,43.681991,-79.329455,1,1,1
"7091","Donlands Subway Station",15,0,15,1751972982,43.681114,-79.3373885,1,1,1
"7093","Danforth Ave / Gough Ave",25,22,1,1751972893,43.678401,-79.346289,1,1,1
"7094","14 Arundel Ave",25,23,1,1751972972,43.6784834,-79.3513564,1,1,1
"7095","Danforth Ave / Ellerbeck St",14,5,8,1751972869,43.677076,-79.35667,1,1,1
"7096","Lower Don River Trail and Taylor Creek Trail",19,1,15,1751972871,43.7027268,-79.3336809,1,1,1
"7097","Riverdale Park North (Broadview Ave)",15,4,5,1751972950,43.671172,-79.354704,1,1,1
"7098","Riverdale Park South (Broadview Ave)",15,5,9,1751973004,43.667819,-79.35347,1,1,1
"7100","Dundas St E / Regent Park Blvd",27,22,5,1751972875,43.660207,-79.361275,1,1,1
"7101","Lower Sherbourne St / The Esplanade",27,23,2,1751972992,43.648655,-79.367061,1,1,1
"7102","Nelson St / Duncan St",31,1,26,1751972984,43.648711,-79.389728,1,1,1
"7103","Jimmie Simpson Park (Queen St E)",15,11,2,1751972994,43.6605603,-79.3437663,1,1,1
"7104","King St E / River St",15,8,5,1751973017,43.6567847828531,-79.3562738505904,1,1,1
"7105","Queen St E / Sackville St",15,8,5,1751972971,43.6561111,-79.3613888888889,1,1,1
"7106","Mill St / Tannery Rd",27,25,2,1751972975,43.652219,-79.354455,1,1,1
"7107","Cherry St / Distillery Ln",15,5,6,1751972965,43.650279,-79.356832,1,1,1
"7108","Front St E / Cherry St",15,8,3,1751972858,43.652686,-79.358395,1,1,1
"7110","Queen St E / Berkeley St",15,10,5,1751972920,43.6552778,-79.3658333333333,1,1,1
"7111","King St W / Douro St",11,9,1,1751972870,43.640885,-79.416379,1,1,1
"7112","Liberty St / Fraser Ave Green P",19,17,0,1751972944,43.637981,-79.424146,1,1,1
"7113","Parliament St / Aberdeen Ave",15,4,11,1751972973,43.665278,-79.368333,1,1,1
"7114","Carlton St / Parliament St",27,13,13,1751972887,43.664524,-79.36793,1,1,1
"7115","Howard St / Sherbourne St",31,17,14,1751972948,43.6712581,-79.376367,1,1,1
"7116","Bloor St E / Parliament St",19,1,18,1751972848,43.6719461020018,-79.3724511533729,1,1,1
"7117","640 Bloor Street E",19,2,14,1751973018,43.6746885744863,-79.3670196239627,1,1,1
"7118","King St W / Bay St (East Side)",19,6,9,1751972871,43.648575,-79.380042,1,1,1
"7119","Sumach St / Carlton St (Riverdale Farm)",15,3,11,1751972999,43.665867,-79.362506,1,1,1
"7120","Gerrard St E / River St",11,7,2,1751972931,43.663993,-79.358534,1,1,1
"7121","Jarvis St / Dundas St E",27,8,18,1751972885,43.657266,-79.374756,1,1,1
"7122","Niagara St / Tecumseth St",15,12,2,1751972941,43.641389,-79.404444,1,1,1
"7123","420 Wellington St W",15,2,7,1751973001,43.643834,-79.396649,1,1,1
"7124","Dundas St E / Broadview Ave",19,9,8,1751972984,43.662365,-79.351104,1,1,1
"7126","Yonge St / Yorkville Ave",16,1,13,1751972949,43.671944,-79.387778,1,1,1
"7127","Bay St / Scollard St",15,2,12,1751972925,43.672152,-79.39018,1,1,1
"7128","Yonge St / Aylmer Ave",23,12,11,1751972953,43.675492,-79.388858,1,1,1
"7129","Davenport Rd / Avenue Rd",11,3,7,1751972960,43.674991,-79.396273,1,1,1
"7130","Davenport Rd / Bedford Rd",15,2,12,1751972969,43.674446,-79.398331,1,1,1
"7131","Taddle Creek Park",15,0,14,1751972966,43.66986,-79.398443,1,1,1
"7132","Kendal Ave / Spadina Rd",9,0,9,1751972912,43.670318,-79.405181,1,1,1
"7135","Hanna Ave / Liberty St",32,28,1,1751973012,43.6386086016367,-79.4196543736107,1,1,1
"7137","Davenport Rd / Bathurst St",15,0,14,1751972911,43.676667,-79.416111,1,1,1
"7138","Davenport Rd / Christie St",27,15,12,1751972932,43.675278,-79.423889,1,1,1
"7139","Glen Edyth Dr / Davenport Rd",15,3,11,1751972865,43.677778,-79.405556,1,1,1
"7140","Macpherson Ave / Spadina Rd",15,0,13,1751972954,43.675791,-79.40698,1,1,1
"7141","Bridgman Ave / Kendal Ave",15,0,14,1751973012,43.675556,-79.410278,1,1,1
"7142","Bridgman Ave / Bathurst St",15,4,9,1751973016,43.674444,-79.414722,1,1,1
"7143","Kendal Ave / Bernard Ave",15,3,7,1751972868,43.671513,-79.408317,1,1,1
"7144","Palmerston Ave / Vermont Ave",15,2,11,1751972995,43.671389,-79.416389,1,1,1
"7146","Christie St / Benson Ave (Wychwood Barns)",19,1,18,1751972895,43.68,-79.425,1,1,1
"7147","King St W / Fraser Ave",15,15,0,1751972861,43.6394444,-79.4252777777778,1,1,1
"7148","King St W / Joe Shuster Way",23,19,0,1751972924,43.639444,-79.423611,1,1,1
"7149","Yarmouth Rd / Christie St",11,3,7,1751972957,43.67,-79.4208333333333,1,1,1
"7150","Dufferin St / Sylvan Av (Dufferin Grove Park)",19,9,6,1751972946,43.6555556,-79.4336111111111,1,1,1
"7151","Essex St / Christie St",19,5,13,1751972962,43.6686111,-79.4202777777778,1,1,1
"7153","Bloor St W / Christie St",19,1,16,1751972943,43.6638889,-79.4188888888889,1,1,1
"7154","Bathurst Subway Station",23,0,22,1751972960,43.6666667,-79.4116666666667,1,1,1
"7155","Bathurst St / Lennox St",19,1,17,1751972967,43.663808,-79.410491,1,1,1
"7156","Salem Ave / Bloor St W",15,0,14,1751972953,43.6608333,-79.4316666666667,1,1,1
"7157","Dufferin St / Bloor St W",22,4,16,1751973001,43.6608333333333,-79.4358333333333,1,1,1
"7158","King St W / Stafford St",15,11,3,1751972990,43.6422222,-79.4111111111111,1,1,1
"7160","King St W / Tecumseth St",19,8,11,1751972916,43.6433333333333,-79.4055555555556,1,1,1
"7161","Beverley St / College St",23,0,21,1751972955,43.6575,-79.3952777777778,1,1,1
"7162","Hayter St / La Plante Ave",23,1,20,1751972914,43.6591666666667,-79.3855555555556,1,1,1
"7164","Gould St / Yonge St (TMU)",23,0,20,1751972999,43.657424,-79.381019,1,1,1
"7168","Queens Quay / Yonge St",46,18,28,1751972950,43.641646,-79.375308,1,1,1
"7169","Front St W / Bay St (North Side)",11,5,5,1751972995,43.646162,-79.378912,1,1,1
"7170","Spadina Ave / Willcocks St",15,2,12,1751972846,43.6616667,-79.4013888888889,1,1,1
"7171","Ontario Place Blvd / Lake Shore Blvd W",27,10,16,1751972954,43.6322445,-79.4108105,1,1,1
"7172","Strachan Ave / Princes' Blvd",19,16,2,1751972905,43.635,-79.4088888888889,1,1,1
"7173","Cariboo Ave / Railpath Trail",19,2,17,1751972990,43.66666667,-79.4583333333333,1,1,1
"7174","Bloor St W / Dundas St W",15,1,14,1751972945,43.6563889,-79.4516666666667,1,1,1
"7175","HTO Park (Queens Quay W)",27,19,6,1751972864,43.63796,-79.387502,1,1,1
"7176","Bathurst St / Fort York Blvd",19,13,5,1751972861,43.639179,-79.399595,1,1,1
"7178","Dundas St W / Edna Ave",15,3,9,1751972923,43.657192,-79.452559,1,1,1
"7180","Lansdowne Subway Station",23,20,2,1751973012,43.659229181581,-79.4432090102228,1,1,1
"7181","Lansdowne Ave / Whytock Ave",15,10,4,1751972994,43.6538888888889,-79.4413888888889,1,1,1
"7182","Sterling Rd / Dundas St W",19,6,11,1751972930,43.6508333333333,-79.4430555555556,1,1,1
"7183","St Clarens Ave / College St",15,10,4,1751972862,43.651238,-79.43868,1,1,1
"7188","Exhibition GO (Atlantic Ave)",15,13,0,1751972935,43.6376954918301,-79.420231841935,1,1,1
"7189","Augusta Ave / Denison Sq",15,1,10,1751973020,43.653766,-79.4016759,1,1,1
"7190","St. George St / Hoskin Ave",15,4,8,1751972987,43.6637403,-79.3980645,1,1,1
"7191","Central Tech  (Harbord St)",11,5,5,1751972849,43.661975,-79.407896,1,1,1
"7192","Harbord St / Clinton St",15,5,8,1751972895,43.660414,-79.415646,1,1,1
"7193","Dufferin St / Queen St W",15,15,0,1751972949,43.6430968793777,-79.4287561377064,1,1,1
"7194","Mortimer Ave / Coxwell Ave",23,14,9,1751972876,43.690564,-79.326319,1,1,1
"7195","Ulster St / Bathurst St",11,4,6,1751972897,43.66,-79.4088888888889,1,1,1
"7196","Roxton Rd / Harbord St",11,9,2,1751972956,43.65905,-79.422988,1,1,1
"7197","Queen St W / Dovercourt Rd",11,7,3,1751972911,43.6438602,-79.4227573,1,1,1
"7198","Queen St W / Cowan Ave",19,15,4,1751972866,43.6408972417382,-79.4328358251833,1,1,1
"7199","College St / Markham St",19,7,8,1751973003,43.6563888888889,-79.4091666666667,1,1,1
"7203","Bathurst St/Queens Quay(Billy Bishop Airport)",34,31,1,1751973000,43.635492,-79.398253,1,1,1
"7204","College St / Crawford St",19,9,6,1751972988,43.655,-79.418889,1,1,1
"7205","Rusholme Park Cres / College St",15,10,5,1751972968,43.65277778,-79.42972222,1,1,1
"7206","Claremont St / Dundas St W",13,8,5,1751972874,43.651281,-79.411717,1,1,1
"7207","Dundas St W / Crawford St",47,24,20,1751972990,43.649722,-79.416944,1,1,1
"7208","80 Clinton St",15,5,10,1751972891,43.656296,-79.414663,1,1,1
"7209","Ossington Ave / Harrison St",19,14,3,1751972991,43.6511111111111,-79.4213888888889,1,1,1
"7210","Mary McCormick Rec Centre (Sheridan Ave)",15,11,2,1751972877,43.6475,-79.4330555555556,1,1,1
"7211","Fort York Blvd / Garrison Rd",15,10,4,1751972880,43.637381,-79.406112,1,1,1
"7216","Wellington St W / Stafford St",23,19,3,1751972947,43.6409957,-79.4096663,1,1,1
"7217","Soho St / Queen St W",14,4,8,1751972845,43.6496497142916,-79.3937214135265,1,1,1
"7220","Lake Shore Blvd W / Ellis Ave",19,15,3,1751972884,43.635932,-79.465083,1,1,1
"7221","High Park Subway Station",11,3,7,1751972912,43.6543604,-79.4655296,1,1,1
"7222","Sunnyside - Gus Ryder Pool",27,13,12,1751972998,43.637894,-79.454823,1,1,1
"7223","Parkside Dr / Bloor St W - SMART",12,1,7,1751973004,43.654501,-79.460053,1,1,1
"7224","Bloor St W / High Park Ave (High Park)",23,4,19,1751972975,43.6535269,-79.4650569,1,1,1
"7225","Lake Shore Blvd W / Windermere Ave",19,6,8,1751972913,43.634896,-79.467763,1,1,1
"7226","Lake Shore Blvd W / The Boulevard Club",19,15,2,1751973003,43.636731,-79.444966,1,1,1
"7227","Martin Goodman Trail (Marilyn Bell Park)",31,23,7,1751972865,43.6314,-79.4304,1,1,1
"7228","King St W / Wilson Park Blvd",19,18,0,1751972874,43.6372958,-79.4423237,1,1,1
"7229","Dundas St W / Roncesvalles Ave Green P -SMART",12,5,7,1751973015,43.6534268,-79.4512787,1,1,1
"7230","Garden Ave / Roncesvalles Ave",19,12,5,1751972974,43.643769,-79.447915,1,1,1
"7231","Wright Ave / Sorauren Ave - SMART",18,16,0,1751972908,43.646677,-79.442741,1,1,1
"7232","Queen St W  /  Fuller Ave - SMART",16,15,0,1751972933,43.640255,-79.439223,1,1,1
"7233","King St W / Cowan Ave - SMART",16,12,4,1751972964,43.637922,-79.431734,1,1,1
"7234","Roncesvalles Ave / Marmaduke St",19,5,14,1751972875,43.650492,-79.450842,1,1,1
"7235","Bay St / College St (West Side) - SMART",16,0,15,1751972858,43.660087,-79.385655,1,1,1
"7236","Thompson St / Broadview Ave - SMART",24,21,0,1751972998,43.659471,-79.350325,1,1,1
"7237","Ward St / Wallace Ave",15,8,5,1751972913,43.662857,-79.44618,1,1,1
"7238","Sorauren Ave / Geoffrey St - SMART",16,14,2,1751972950,43.649172,-79.4445087,1,1,1
"7239","Bloor St W / Manning Ave - SMART",42,32,10,1751972876,43.663912,-79.416124,1,1,1
"7240","Bloor St W / Shaw St - SMART",34,22,11,1751972901,43.662403,-79.423098,1,1,1
"7241","519 Church St ",11,0,10,1751972993,43.6668334195837,-79.3812039105412,1,1,1
"7242","Lake Shore Blvd W / Ontario Dr",35,1,30,1751972944,43.630254,-79.420317,1,1,1
"7243","Exhibition GO Station",14,2,11,1751972911,43.6352007,-79.4187711,1,1,1
"7244","Dufferin Gate - SMART",16,11,3,1751972861,43.633473,-79.425679,1,1,1
"7246","Yonge St / Bloor St",19,2,16,1751972887,43.669969,-79.386532,1,1,1
"7247","Howard Park Ave / Dundas St W - SMART",12,3,8,1751972876,43.6521,-79.4486,1,1,1
"7248","Baldwin St / Spadina Ave - SMART",20,3,16,1751972999,43.654905,-79.398448,1,1,1
"7249","144 Harrison St",51,36,5,1751972845,43.651145,-79.423742,1,1,1
"7250","Ursula Franklin St / St. George St - SMART",16,0,16,1751972865,43.660296,-79.397107,1,1,1
"7252","Robert St / Bloor St W - SMART",18,0,18,1751972981,43.665846,-79.404998,1,1,1
"7253","John St  / Mercer St - SMART",12,2,7,1751972943,43.6461,-79.3895,1,1,1
"7256","Vanauley St / Queen St W - SMART",12,3,9,1751972922,43.648437,-79.39838,1,1,1
"7257","Dundas St W / St. Patrick St",19,4,14,1751972886,43.6545174,-79.3895315,1,1,1
"7258","Queen St E / Rushbrooke Ave",15,10,5,1751972857,43.6626628,-79.3323698,1,1,1
"7259","Lower Spadina Ave / Lake Shore Blvd W",19,6,11,1751972930,43.638497,-79.39192,1,1,1
"7260","Spadina Ave / Adelaide St W",15,8,5,1751973023,43.6472019,-79.3953394,1,1,1
"7261","Queens Quay E / Lower Sherbourne St",24,21,1,1751972994,43.645215,-79.364898,1,1,1
"7262","Wychwood Ave / Benson Ave - SMART",16,0,16,1751972863,43.6809164,-79.4229684,1,1,1
"7264","Bloor St E / Huntley St - SMART",20,0,19,1751972869,43.671535,-79.379173,1,1,1
"7265","Wallace Ave / Symington Ave - SMART",12,4,8,1751973019,43.661324,-79.449534,1,1,1
"7267","Dundas St E / Pembroke St ",15,6,8,1751972996,43.658295,-79.372346,1,1,1
"7268","111 Bond St (North of Dundas St E)  - SMART",16,1,15,1751972895,43.656927,-79.378497,1,1,1
"7269","Toronto Eaton Centre (Yonge St) - SMART",20,4,14,1751972851,43.655431,-79.380653,1,1,1
"7270","Church St / Dundas St E - SMART",20,13,7,1751972994,43.657024,-79.377257,1,1,1
"7271","Yonge St / Alexander St - SMART",18,8,7,1751972848,43.662862,-79.383572,1,1,1
"7272","Yonge St / Dundonald St ",11,1,9,1751972913,43.665801,-79.384796,1,1,1
"7273","Bay St / Charles St W - SMART",20,15,5,1751972941,43.668153,-79.38891,1,1,1
"7274","Queen's Park Cres E / Grosvenor St - SMART",16,4,11,1751972995,43.661803,-79.389682,1,1,1
"7276","Bloor St W / Balmuto St",11,0,11,1751972970,43.6698106428206,-79.3880110687303,1,1,1
"7277","Chorley Park - SMART",20,8,10,1751972971,43.6856,-79.3718,1,1,1
"7278","Mallon Ave / Jones Ave -SMART",15,10,5,1751973004,43.66587,-79.33443,1,1,1
"7279","Rosehill Ave / Avoca Ave - SMART",16,1,14,1751972861,43.687999,-79.38906,1,1,1
"7280","Charles St E / Jarvis St - SMART",20,12,8,1751973009,43.669604,-79.381171,1,1,1
"7281","Charles St W / Balmuto St - SMART",24,12,12,1751972922,43.668427,-79.38725,1,1,1
"7282","Adelaide St W / Bay St",23,6,16,1751973018,43.650152,-79.379856,1,1,1
"7283","Front St W / Bay St (South Side)",19,4,11,1751972883,43.64595,-79.378761,1,1,1
"7284","University Ave / King St W - SMART",24,3,19,1751972932,43.6477785,-79.3847928,1,1,1
"7285","Spadina Ave / Harbord St - SMART",36,28,4,1751972900,43.6629228,-79.4018451,1,1,1
"7286","Gerrard St E / Broadview Ave  - SMART",18,11,5,1751972926,43.665656,-79.352055,1,1,1
"7287","Queen St E / Pape Ave - SMART",15,5,10,1751972871,43.661673,-79.337789,1,1,1
"7288","Humber Bay Shores Park West",31,13,15,1751972893,43.6224434,-79.480284,1,1,1
"7289","Humber Bay Shores Park East",23,3,18,1751972848,43.6308933,-79.4722622,1,1,1
"7291","190 Queens Quay E",15,11,3,1751972851,43.6451308,-79.3653644,1,1,1
"7292","Granby St / Church St - SMART",24,4,20,1751973024,43.6614605,-79.3789457,1,1,1
"7296","Westmoreland Ave / Fernbank Ave",19,4,14,1751972976,43.665327,-79.43235,1,1,1
"7297","Havelock St / Dufferin Park",19,9,8,1751972944,43.657343,-79.43112,1,1,1
"7298","Bathurst St / Adelaide St W",25,23,1,1751973023,43.645324,-79.40345,1,1,1
"7299","Mill St / Parliament St",15,7,6,1751972985,43.650256,-79.36163,1,1,1
"7301","Primrose Ave / Davenport Rd",15,5,10,1751972933,43.67142,-79.445947,1,1,1
"7302","Winona Dr / Davenport Rd",11,3,8,1751972900,43.674923,-79.430465,1,1,1
"7303","Queen St E / Woodward Ave",19,12,7,1751972980,43.665269,-79.319796,1,1,1
"7309","Queen St E / Rhodes Ave",23,13,9,1751972992,43.666224,-79.317693,1,1,1
"7311","Sherbourne St / Isabella St",19,12,7,1751972968,43.669576,-79.375961,1,1,1
"7312","Amelia St / Sumach St",11,3,5,1751973009,43.66852,-79.363525,1,1,1
"7313","Emdaabiimok Ave / Lake Shore Blvd E",15,13,1,1751973020,43.662771,-79.315223,1,1,1
"7314","Queen St. E / Eastern Ave",15,9,5,1751972965,43.667208,-79.312315,1,1,1
"7315","Queen St E / Hammersmith Ave",11,4,7,1751972911,43.671349,-79.29451,1,1,1
"7316","Queen St. E / Spruce Hill Rd.",15,5,10,1751972874,43.672571,-79.289,1,1,1
"7317","Hubbard Blvd / Balsam Av",19,4,15,1751973001,43.669328,-79.288949,1,1,1
"7318","Hubbard Blvd / Glen Manor Dr",15,6,9,1751973019,43.668633,-79.291162,1,1,1
"7319","Lake Shore Blvd E / Knox Ave",11,3,8,1751972854,43.660206,-79.3244,1,1,1
"7320","Front St W / University Ave (1)",19,2,16,1751972863,43.6451635,-79.3831757,1,1,1
"7321","Front St W / University Ave (2)",19,5,10,1751972902,43.6452972,-79.3827914,1,1,1
"7322","East Liberty St / Western Battery Rd",19,15,3,1751972928,43.6392777,-79.4115736,1,1,1
"7323","457 King St W",19,4,15,1751972859,43.6452091,-79.3960744,1,1,1
"7324","King St W / Charlotte St",23,6,16,1751972985,43.645572,-79.39399,1,1,1
"7326","Davenport Rd / Lansdowne Ave",19,2,15,1751972878,43.671526,-79.44874,1,1,1
"7327","Davenport Rd / Dovercourt Rd - SMART",16,2,12,1751972878,43.6741219,-79.4352208,1,1,1
"7329","Crawford St / Queen St W",19,11,7,1751972850,43.645665,-79.415345,1,1,1
"7331","Coxwell Ave / Plains Rd",19,4,15,1751972993,43.69595,-79.328535,1,1,1
"7332","200 Bloor St E",22,17,4,1751972868,43.671561,-79.38117,1,1,1
"7333","King St E / Victoria St",19,4,13,1751972906,43.6495789,-79.3762096,1,1,1
"7334","Simcoe St / Wellington St W North",15,0,15,1751972848,43.6462176,-79.3855048,1,1,1
"7335","Bay St / Bloor St W (West Side)",19,8,11,1751972888,43.669244,-79.3894,1,1,1
"7336","Queen St E / Alton Av",19,14,5,1751972924,43.663912,-79.327987,1,1,1
"7337","Gerrard Square Mall (1010 Gerrard St E)",23,13,9,1751972924,43.668553,-79.338673,1,1,1
"7338","Logan Ave / Bain Ave",19,14,5,1751972968,43.6720273,-79.3470557,1,1,1
"7339","Carlaw Ave / Strathcona Ave",15,11,3,1751972860,43.6753188,-79.3462789,1,1,1
"7340","Blake St / Boultbee Ave",15,10,5,1751972853,43.672453,-79.338259,1,1,1
"7341","Eastern Ave / Winnifred Ave",14,12,1,1751972860,43.6592088,-79.3348396,1,1,1
"7342","Morse St / Eastern Ave",11,7,1,1751972967,43.657991,-79.340075,1,1,1
"7343","Alton Ave / Dundas St E (Greenwood Park)",23,19,4,1751972853,43.66745,-79.329408,1,1,1
"7344","Cherry Beach",49,17,29,1751973000,43.637764,-79.345359,1,1,1
"7345","Cherry Beach Sports Fields (55 Unwin Ave)",31,2,29,1751972853,43.6408346,-79.3429074,1,1,1
"7346","Logan Ave / Gerrard St E",23,10,12,1751972897,43.6672144,-79.3452697,1,1,1
"7347","Regal Rd / Dufferin St",15,2,13,1751972869,43.673939,-79.441159,1,1,1
"7348","Pape Ave / Gamble Ave",19,14,5,1751972959,43.690237,-79.350119,1,1,1
"7349","Gamble Ave / Broadview Ave",23,11,11,1751972941,43.689211,-79.35438,1,1,1
"7350","Broadview Ave / Westwood Ave",23,17,5,1751972886,43.6848652,-79.356602,1,1,1
"7351","Pretoria Ave / Broadview Ave",19,5,14,1751972965,43.6783213,-79.35822,1,1,1
"7352","Cosburn Ave / Donlands Ave",19,12,5,1751972947,43.690537,-79.341307,1,1,1
"7353","Fulton Ave / Pape Ave",19,4,15,1751972927,43.68395,-79.347046,1,1,1
"7354","Tommy Thompson Park (Leslie Street Spit)",31,11,16,1751972973,43.6522266222553,-79.3229544095408,1,1,1
"7355","Beltline Trail / Chaplin Cres",15,1,14,1751972966,43.704461,-79.423122,1,1,1
"7356","King St E / Berkeley St",31,14,16,1751972898,43.651885,-79.3649,1,1,1
"7357","Lake Shore Blvd E / Leslie St",19,18,0,1751973025,43.659195,-79.329196,1,1,1
"7358","Galbraith Rd / King's College Rd",17,4,12,1751973021,43.6603874468082,-79.3953783181415,1,1,1
"7359","Rosedale Park (20 Scholfield Ave)",23,3,20,1751972990,43.682645,-79.377557,1,1,1
"7360","Concord Ave / Dewson St",17,13,3,1751972870,43.656945,-79.424911,1,1,1
"7361","Hocken Ave / Vaughan Rd",19,0,18,1751972931,43.6817346,-79.4184725,1,1,1
"7362","St Clair Ave W / Bathurst St.",19,1,18,1751972878,43.683296,-79.418734,1,1,1
"7363","Wells Hill Ave / St Clair Ave W",15,0,14,1751972929,43.683351,-79.41562,1,1,1
"7364","Queen St E / Nursewood Rd",19,16,3,1751972856,43.673831,-79.281455,1,1,1
"7365","Kewbeach Ave / Kenilworth Ave",23,10,13,1751972950,43.666325,-79.3014,1,1,1
"7366","Fort York Blvd / Bathurst St - SMART",20,14,6,1751972865,43.639052,-79.399792,1,1,1
"7367","Alma Ave / Gladstone Ave SMART",15,14,0,1751972992,43.6448617,-79.42822,1,1,1
"7368","Lisgar St / Dundas St W - SMART",8,1,5,1751972930,43.6493472,-79.42668,1,1,1
"7371","Eglinton Ave W / Henning Ave SMART",20,8,12,1751972948,43.7063473,-79.40161,1,1,1
"7374","Frederick St / The Esplanade",19,18,1,1751972892,43.6487245,-79.36839,1,1,1
"7375","Front St E / Scott St",11,4,6,1751972957,43.6476616,-79.37549,1,1,1
"7376","Frobisher Ave / Lascelles Blvd",19,7,12,1751972893,43.696708,-79.40045,1,1,1
"7377","Balliol St / Yonge St - SMART",35,12,23,1751972866,43.6978701,-79.39419,1,1,1
"7378","Yonge St / Davisville Ave",15,3,12,1751972880,43.6975969,-79.39654,1,1,1
"7379","Lawton Blvd / Yonge St",15,3,11,1751972873,43.6910667,-79.39535,1,1,1
"7380","Erskine Ave / Yonge St SMART",16,8,8,1751973000,43.7112153,-79.39894,1,1,1
"7381","Yonge St / Orchard View Blvd",35,18,17,1751972913,43.7083577,-79.398862,1,1,1
"7383","12 Harbour St",15,5,10,1751972871,43.6425636,-79.3762,1,1,1
"7384","Cumberland St / Bay St -  SMART",9,5,3,1751972870,43.6704537,-79.39014,1,1,1
"7385","20 Charles St E",33,18,7,1751972852,43.6691099,-79.38551,1,1,1
"7386","D'Arcy St / McCaul St - SMART",16,0,15,1751972962,43.655227,-79.39201,1,1,1
"7387","Mortimer Ave / Carlaw Ave SMART",12,11,1,1751972995,43.685167,-79.34962,1,1,1
"7388","Broadview Subway Station",15,2,12,1751972958,43.6772,-79.35858,1,1,1
"7389","College Park - Gerrard Entrance",25,1,20,1751972990,43.658938,-79.383518,1,1,1
"7391","Yonge St / Dundas Sq",31,8,22,1751972965,43.655766,-79.3802,1,1,1
"7395","Dentonia Park",23,6,15,1751972968,43.694341,-79.291416,1,1,1
"7398","York St / Lake Shore Blvd W",19,7,8,1751972991,43.641952,-79.380723,1,1,1
"7399","Lower Jarvis St / Queens Quay E",19,11,7,1751972977,43.64422,-79.36927,1,1,1
"7400","Polson Pier",23,7,16,1751972898,43.641675,-79.354006,1,1,1
"7403","Lascelles Blvd / Eglinton Ave W",19,8,11,1751972999,43.70547,-79.40355,1,1,1
"7404","Roehampton Ave / Mount Pleasant Rd",19,7,8,1751972941,43.70942,-79.39139,1,1,1
"7407","University Ave / Queen St W",19,1,16,1751972977,43.6505242421255,-79.386727025795,1,1,1
"7409","Isabella St / Church St",27,15,11,1751972886,43.66834,-79.38235,1,1,1
"7410","Howard St / Rose Ave",19,4,13,1751972878,43.671278,-79.372127,1,1,1
"7411","Little Norway Park",23,19,0,1751972962,43.635023,-79.399505,1,1,1
"7412","King St W / Crawford St",23,20,1,1751972953,43.6417852,-79.4131148,1,1,1
"7414","Keele St / Annette St",15,9,5,1751972967,43.66402,-79.46418,1,1,1
"7415","Keele St / Vine Ave",23,4,19,1751972869,43.66686,-79.46526,1,1,1
"7416","Spadina Ave / Blue Jays Way",30,14,14,1751972858,43.641705,-79.393295,1,1,1
"7418","College Park - Yonge St Entrance",25,1,23,1751972922,43.65988,-79.38279,1,1,1
"7419","Bloor St W / Huron St",27,0,27,1751972863,43.667023,-79.401805,1,1,1
"7420","Barton Ave / Howland Ave - SMART",27,6,21,1751972967,43.66842,-79.410585,1,1,1
"7422","Tyndall Ave / King St W - SMART",16,13,2,1751972874,43.638426,-79.429142,1,1,1
"7424","Merton St / Mount Pleasant Rd",23,10,11,1751972984,43.697819,-79.38786,1,1,1
"7425","The Queensway at South Kingsway",23,15,6,1751972991,43.63632,-79.47307,1,1,1
"7428","Woodbine Ave / Lake Shore Blvd E",27,10,14,1751973015,43.665645,-79.304711,1,1,1
"7429","Woodbine Subway Station",15,3,12,1751972923,43.686442,-79.313404,1,1,1
"7430","Marilyn Bell Park Tennis Court",27,11,13,1751972918,43.633537,-79.437461,1,1,1
"7431","Gerrard St E / Leslie St",27,20,7,1751973020,43.669813,-79.3335,1,1,1
"7432","Frederick St / King St E",47,28,17,1751972888,43.651118,-79.369411,1,1,1
"7433","Dundas St E / Boulton Ave - SMART",16,10,6,1751973001,43.663148,-79.347938,1,1,1
"7434","91 Via Italia",39,24,2,1751973003,43.6766501425383,-79.4450302975533,1,1,1
"7435","Rushton Rd / St Clair Ave W",10,1,9,1751972856,43.68114,-79.4277,1,1,1
"7437","Concord Ave / Bloor St W",15,9,4,1751972952,43.66189,-79.42679,1,1,1
"7438","Gothic Ave / Quebec Ave",19,5,12,1751972963,43.65389,-79.4675,1,1,1
"7441","Pacific Ave / Glenlake Ave",22,8,13,1751973021,43.65716,-79.46478,1,1,1
"7442","Lonsdale Rd / Spadina Rd",14,0,12,1751973002,43.688526,-79.412903,1,1,1
"7443","Dundas St E / George St",25,7,18,1751973014,43.6574766,-79.373446,1,1,1
"7444","Clendenan Ave / Rowland St - SMART",20,4,16,1751972871,43.66073,-79.47149,1,1,1
"7445","Eastwood Rd / Coxwell Ave",19,15,4,1751973001,43.673118,-79.318651,1,1,1
"7446","Orchard Park",19,11,8,1751972846,43.66908,-79.3149,1,1,1
"7447","Trent Ave / Danforth Ave",23,2,21,1751972907,43.689293,-79.295895,1,1,1
"7448","Goodwood Park Crt / Dentonia Park",19,3,16,1751972873,43.694826,-79.295208,1,1,1
"7449","Cosburn Ave / Cedarvale Ave",15,4,10,1751972880,43.697139,-79.31469,1,1,1
"7450","Carlaw Ave / Danforth Ave",15,0,8,1751972858,43.678285,-79.347346,1,1,1
"7451","Western Battery Rd / Pirandello St",29,26,2,1751972983,43.640075,-79.414156,1,1,1
"7452","Bleecker St / St James Ave",23,6,16,1751972953,43.669232,-79.374495,1,1,1
"7453","Jarvis St / Maitland Pl",17,5,11,1751972994,43.6647688,-79.3772602,1,1,1
"7454","Pottery Rd / Lower Don River Trail",15,8,5,1751973015,43.688148,-79.362101,1,1,1
"7455","E.T. Seton Park (Eglinton Ave E / Leslie St)",27,7,19,1751972999,43.715951,-79.351246,1,1,1
"7457","Queen's Park Cres W / Hoskin Ave",23,1,19,1751972997,43.665221,-79.394009,1,1,1
"7458","Church St / Lombard St",17,5,12,1751972933,43.651678,-79.375233,1,1,1
"7459","St Clair Ave W / Winona Dr",11,0,9,1751972991,43.680466,-79.432522,1,1,1
"7460","High Park Outdoor Pool",27,16,9,1751972877,43.650154,-79.464934,1,1,1
"7461","High Park Amphitheatre",23,4,19,1751972893,43.646251,-79.46472,1,1,1
"7462","Richmond St E / Yonge St",17,15,1,1751972881,43.651838,-79.378743,1,1,1
"7465","Russell Hill Rd / St Clair Ave W",19,3,15,1751972925,43.685569,-79.408019,1,1,1
"7466","Glendonwynne Rd / Bloor St W",19,15,4,1751972869,43.65182,-79.47421,1,1,1
"7467","Lower Simcoe St / Bremner Blvd",15,3,11,1751973002,43.64283,-79.38409,1,1,1
"7469","York St / Wellington St W (1) ",22,1,19,1751972931,43.646734,-79.38301,1,1,1
"7471","2300 Lakeshore Blvd W",15,4,8,1751972966,43.61868,-79.48674,1,1,1
"7473","Adelaide St W / Strachan Ave",15,9,4,1751972938,43.6432530948273,-79.4123046990417,1,1,1
"7474","Clarence Square",23,1,22,1751973007,43.64407,-79.3929,1,1,1
"7475","Jarvis St / Richmond St E",19,6,11,1751972958,43.652777,-79.372637,1,1,1
"7476","Symington Ave / Dupont St",15,12,3,1751973003,43.665538,-79.451263,1,1,1
"7477","Antler St / Campbell Ave - SMART",20,2,14,1751972987,43.664182,-79.449066,1,1,1
"7478","Ellis Ave / The Queensway",19,18,1,1751972974,43.63855,-79.46693,1,1,1
"7479","Jane St / Bloor St W (Jane Subway Station)",15,5,10,1751972919,43.64976,-79.48477,1,1,1
"7480","Neil McLellan Park",14,9,3,1751972953,43.65143,-79.47779,1,1,1
"7483","Southwood Dr / Kingston Rd - SMART",12,8,4,1751972932,43.678685,-79.297974,1,1,1
"7484","Briar Hill Ave / Yonge St - SMART",16,2,14,1751972975,43.713524,-79.400162,1,1,1
"7485","Blythwood Rd / Yonge St - SMART",14,3,11,1751973018,43.716652,-79.399993,1,1,1
"7486","Gerrard St E / Main St",22,11,11,1751972895,43.684261,-79.299332,1,1,1
"7487","Eastwood Rd / Woodbine Ave - SMART",14,5,9,1751972971,43.676216,-79.309395,1,1,1
"7488","Summerhill Ave / Maclennan Ave",11,5,5,1751972929,43.685924,-79.376304,1,1,1
"7489","Sumach St  / Queen St E",19,16,3,1751972911,43.656638,-79.358749,1,1,1
"7492","Cherry St / Lake Shore Blvd E",15,2,11,1751972951,43.6482701576102,-79.3565173367707,1,1,1
"7493","Sackville St / Eastern Ave - SMART",12,11,0,1751972906,43.653809,-79.3595,1,1,1
"7494","Davenport Rd / McAlpine St - SMART",12,2,10,1751972911,43.673768,-79.391253,1,1,1
"7496","Sunnyside Ave / The Queensway - SMART",19,19,0,1751972846,43.6397,-79.44865,1,1,1
"7497","128 Sterling Rd - SMART",20,9,9,1751973014,43.654004,-79.444792,1,1,1
"7501","Humberside Grounds - SMART",20,4,15,1751972930,43.65917,-79.46997,1,1,1
"7502","University Ave / College St (East)",20,4,13,1751972957,43.65995,-79.38964,1,1,1
"7503","Gerrard St E / Malvern Ave - SMART",20,13,7,1751972859,43.685221,-79.294766,1,1,1
"7504","Gerrard St E / Victoria Park Ave - SMART",16,10,6,1751972946,43.686962,-79.286864,1,1,1
"7505","Ontario St / Adelaide St E -SMART",20,13,6,1751972965,43.6535052,-79.3667689,1,1,1
"7506","Berkeley St / Adelaide St E - SMART",12,8,3,1751972973,43.653359,-79.365023,1,1,1
"7508","Berkeley St / Dundas St E - SMART",40,32,4,1751972872,43.658816,-79.367318,1,1,1
"7514","Humber Bay Shores Park / Marine Parade Dr",63,6,53,1751972962,43.626265,-79.476723,1,1,1
"7515","Amos Waites Park",27,19,4,1751972877,43.613606,-79.4883535,1,1,1
"7516","Superior Ave / Lake Shore Blvd W",17,13,2,1751972987,43.6146692,-79.4873148,1,1,1
"7517","Ripley Ave / Ormskirk Ave",23,19,4,1751972972,43.6390437,-79.4760109,1,1,1
"7518","Lake Shore Blvd W / Colborne Lodge Dr",26,6,16,1751973019,43.63771,-79.458173,1,1,1
"7519","406 Oakwood Ave",19,1,17,1751972930,43.6882706002271,-79.4393776708185,1,1,1
"7520","St Clarens Ave / Shirley St",15,5,8,1751972986,43.6486599,-79.4376413,1,1,1
"7521","Emerson Ave / Bloor St W",23,1,19,1751972898,43.658739,-79.440691,1,1,1
"7522","Wallace Ave / Pauline Ave",17,2,13,1751973011,43.6632257,-79.4397052,1,1,1
"7523","Lynn Williams St / East Liberty St",15,13,1,1751972868,43.638925,-79.4168659,1,1,1
"7524","Lisgar Park",35,33,2,1751972862,43.6423847,-79.4240277,1,1,1
"7526","Bartlett Parkette",23,0,20,1751972894,43.6702236,-79.4360232,1,1,1
"7527","Joseph J Piccininni Community Centre",19,2,17,1751973012,43.675648,-79.4527619,1,1,1
"7528","Spadina Rd / Austin Terrace",17,0,17,1751972967,43.67883,-79.408723,1,1,1
"7529","Symington Ave / Davenport Rd",15,4,11,1751972967,43.6704403,-79.4532855,1,1,1
"7530","Sherbourne St N / Elm Ave",22,0,15,1751972878,43.6752732,-79.3778458,1,1,1
"7531","541 Huron St - SMART",19,0,2,1751972996,43.670206,-79.402643,1,1,1
"7533","Housey St / Dan Leckie Way",27,18,8,1751973008,43.63811,-79.397877,1,1,1
"7534","Walnut Ave / Queen St W",15,12,3,1751972950,43.645469,-79.411084,1,1,1
"7536","Palmerston Ave / Dundas St W",23,19,4,1751973016,43.651603,-79.408346,1,1,1
"7537","Euclid Ave / Herrick St - SMART",16,0,13,1751972932,43.661559,-79.413845,1,1,1
"7538","Vaughan Rd /Wychwood Ave",19,2,17,1751972968,43.6882821,-79.4253856,1,1,1
"7539","Davisville Ave / Pailton Cres",19,8,11,1751972847,43.69933,-79.39199,1,1,1
"7540","Alvin Ave / St Clair Ave E",19,3,15,1751972964,43.68871,-79.39264,1,1,1
"7541","Bellwoods Ave / Treford Pl - SMART",20,9,10,1751972983,43.65246,-79.413528,1,1,1
"7542","Queen St W / John St",23,6,12,1751972992,43.650077,-79.391291,1,1,1
"7543","Nassau St / Bellevue Ave",15,8,6,1751972971,43.6548421554225,-79.4035123249437,1,1,1
"7545","Baldwin St / Henry St",15,0,13,1751972880,43.6560758,-79.393259,1,1,1
"7546","Ross St / Cecil St - SMART",18,0,18,1751972953,43.6568254,-79.3966159,1,1,1
"7547","Orde St / McCaul St",15,9,5,1751972992,43.6580442,-79.3927404,1,1,1
"7548","St. Joseph St / Bay St - SMART",20,6,14,1751972953,43.6658804,-79.3876101,1,1,1
"7549","439 Sherbourne St",47,37,10,1751972975,43.666051,-79.374161,1,1,1
"7551","The Esplanade / Hahn Pl",15,13,1,1751972851,43.649709,-79.364184,1,1,1
"7552","Lake Shore Blvd W / Thirty Ninth Street",19,17,2,1751972916,43.5927419,-79.5403301,1,1,1
"7553","Lake Shore Blvd W / Twenty Fourth St",19,0,17,1751972998,43.597082,-79.522768,1,1,1
"7554","Humber College (Lakeshore Campus)",27,15,11,1751972992,43.5961692,-79.5160575,1,1,1
"7555","Royal York Rd / Mimico Ave",20,3,17,1751972989,43.612063,-79.496573,1,1,1
"7556","Windsor St / Newcastle St",31,6,23,1751972957,43.6171635,-79.4971065,1,1,1
"7557","The Queensway / High St",23,19,4,1751972915,43.630874,-79.482407,1,1,1
"7558","Berry Rd / Bell Manor Dr",19,18,0,1751972867,43.63732,-79.489083,1,1,1
"7559","Swansea Community Centre",15,9,5,1751972962,43.6438036,-79.4770327,1,1,1
"7561","Annette St / Jane St",15,3,11,1751973020,43.658574,-79.487246,1,1,1
"7562","Priscilla Ave / Dundas St W",23,0,23,1751973013,43.664665,-79.489385,1,1,1
"7563","St Clair Ave W / Castleton Ave",19,3,16,1751972847,43.668496,-79.485426,1,1,1
"7564","Durie St / Dundas St W",23,7,16,1751972898,43.665523,-79.484892,1,1,1
"7565","St Clair Ave W / Gunns Rd",23,14,8,1751972855,43.672079,-79.470171,1,1,1
"7566","Weston Rd / St Clair Ave W",19,0,18,1751972928,43.673019,-79.467994,1,1,1
"7567","Weston Lions Park",27,0,26,1751973004,43.698841,-79.519472,1,1,1
"7568","Jameson Ave / Queen St W",26,26,0,1751972892,43.63985,-79.43703,1,1,1
"7569","Toronto Inukshuk Park",47,22,23,1751972928,43.6323994,-79.4097818,1,1,1
"7570","Carlaw Ave / Dundas St E",17,13,3,1751972972,43.665076,-79.341509,1,1,1
"7571","Highfield Rd / Gerrard St E",19,15,3,1751972877,43.671771,-79.324961,1,1,1
"7572","Cosburn Ave / Durant Ave",15,1,14,1751972982,43.6935477,-79.3301658,1,1,1
"7575","Bayview Ave / Lawren Harris Square",15,13,1,1751973011,43.6548521,-79.3539768,1,1,1
"7576","Front St E / Bayview Avenue",23,21,0,1751972977,43.6535,-79.354068,1,1,1
"7577","Oak St / Sumach St",27,22,3,1751972915,43.6617908,-79.361515,1,1,1
"7580","Hillsdale Ave W / Yonge St",15,3,11,1751972980,43.7029672,-79.3979073,1,1,1
"7581","High Park Ave / Dundas St W",15,11,3,1751972971,43.6653032,-79.4701178,1,1,1
"7582","Alameda Ave / Vaughan Rd - SMART",16,0,16,1751972909,43.690903,-79.4375028,1,1,1
"7583","Eglinton Ave W / Scarlett Rd",22,3,17,1751972940,43.6834703,-79.5108942,1,1,1
"7584","The Pond Rd / Sentinel Rd",27,5,21,1751972935,43.7696262,-79.5025943,1,1,1
"7585","Sentinel Rd / Finch Corridor Trail",27,10,15,1751972892,43.7641485,-79.5012809,1,1,1
"7586","Finch West Subway Station",23,2,21,1751972887,43.76521,-79.491281,1,1,1
"7587","Dufferin St / Finch Corridor Trail",19,5,14,1751972894,43.7724019,-79.4675395,1,1,1
"7588","G Ross Lord Park",19,7,11,1751972937,43.7781116,-79.467963,1,1,1
"7589","Torresdale Ave / Antibes Dr",15,3,9,1751973020,43.77953,-79.45233,1,1,1
"7590","Esther Shiner Stadium",23,8,15,1751972847,43.7774374,-79.4447096,1,1,1
"7591","Elwood Blvd / Avenue Rd",23,0,23,1751972951,43.707049,-79.40966,1,1,1
"7593","Roehampton Ave / Bayview Ave",27,17,10,1751972955,43.711751,-79.378615,1,1,1
"7594","Fleming Cres / Bayview Ave",15,2,11,1751972907,43.707045,-79.375437,1,1,1
"7595","Moore Park",15,0,14,1751972902,43.693256,-79.383238,1,1,1
"7596","Langford Ave / Danforth Ave - SMART",32,11,21,1751972882,43.6800218,-79.3405681,1,1,1
"7597","Yonge St / Golfdale Rd",15,6,9,1751972896,43.732016,-79.403637,1,1,1
"7598","Teddington Park Ave",15,6,9,1751972971,43.732975,-79.40401,1,1,1
"7599","Richmond St W / York St",17,3,11,1751972996,43.650745,-79.383633,1,1,1
"7600","Ursula Franklin St / Huron St - SMART",20,1,19,1751972853,43.660274,-79.398049,1,1,1
"7601","Brick Works",24,9,12,1751972901,43.683884,-79.36647,1,1,1
"7602","Woodbine Ave / O'Connor Dr",19,5,13,1751972942,43.699281,-79.318802,1,1,1
"7603","O'Connor Dr / Curity Ave",14,8,5,1751972854,43.707582,-79.311439,1,1,1
"7604","St Columba Pl / St Clair Ave E",19,6,12,1751973017,43.70567,-79.310554,1,1,1
"7605","Lumsden Ave / Eastdale Ave",20,5,15,1751972905,43.6941354819917,-79.3005871877529,1,1,1
"7606","Dawes Rd / Taylor Creek Trl",19,8,10,1751972943,43.696631,-79.297436,1,1,1
"7607","Fairmount Park",19,12,7,1751972874,43.6765897,-79.3163022,1,1,1
"7608","Wilket Creek Park",27,8,19,1751973009,43.720645,-79.355474,1,1,1
"7609","Sunnybrook Park",27,10,17,1751973007,43.720233,-79.362092,1,1,1
"7610","Kingston Rd / Beech Ave",15,2,13,1751972951,43.680095,-79.291714,1,1,1
"7611","Victoria Park Ave / Danforth Ave",19,3,14,1751972943,43.691468,-79.288619,1,1,1
"7612","Livingston Rd / Guildwood Pkwy",19,0,14,1751972887,43.747854,-79.199327,1,1,1
"7613","Livingston Rd (Highland Creek Trail)",19,3,16,1751972889,43.7561681,-79.2026694,1,1,1
"7614","Morningside Park (Highland Creek Trail)",23,11,10,1751972877,43.779353,-79.193023,1,1,1
"7615","Colonel Danforth Park",19,14,5,1751972948,43.7777114,-79.1659711,1,1,1
"7616","Waterfront Trail (Rouge Hill)",19,13,2,1751973003,43.778015,-79.131911,1,1,1
"7617","Starspray Blvd / Lawrence Ave E",19,12,5,1751972899,43.7885252145541,-79.1231844760227,1,1,1
"7618","Vaughan Rd / Oakwood Ave",19,0,19,1751972978,43.6926825,-79.441042,1,1,1
"7619","Braemar Ave / Eglinton Ave W",15,0,15,1751972855,43.7041957,-79.4094472,1,1,1
"7620","Eglinton Ave E / Redpath Ave",31,13,17,1751972917,43.7078691,-79.39248,1,1,1
"7622","Marie Curtis Park",23,17,4,1751972844,43.5880774,-79.5432067,1,1,1
"7623","Royal York Rd / Lake Shore Blvd W",19,12,7,1751972969,43.6029904,-79.4926867,1,1,1
"7624","Guildwood GO Station (South)",11,2,8,1751972927,43.754978,-79.1971289,1,1,1
"7625","Yonge St / Lawrence Ave E",23,1,22,1751972952,43.7254665,-79.4011545,1,1,1
"7626","Rouge Hill GO Station",25,4,15,1751972999,43.7805505,-79.1301203,1,1,1
"7627","Shaw St / Essex St - SMART",15,5,8,1751972918,43.667076,-79.425116,1,1,1
"7629","Lundy Ave / Étienne Brûlé Park",15,2,11,1751972900,43.6625395,-79.5030161,1,1,1
"7630","Twelfth St / Thirteenth St",23,20,2,1751973013,43.6002896,-79.5108692,1,1,1
"7632","Chiltern Hill Rd / Eglinton Ave W",17,1,15,1751972948,43.7004017,-79.4275305,1,1,1
"7635","Runnymede Rd / Annette St",15,8,7,1751972941,43.6596299,-79.4799176,1,1,1
"7636","Bloor St W / Riverside Dr",23,4,18,1751972982,43.647663,-79.487583,1,1,1
"7637","Judson St / Royal York Rd",19,5,14,1751973009,43.6162721,-79.4990363,1,1,1
"7639","135 Queens Wharf Rd - SMART",16,9,6,1751972889,43.6399714,-79.399404,1,1,1
"7640","Spadina Rd / St.Clair Ave West",15,2,13,1751972938,43.683979,-79.410657,1,1,1
"7641","Annette St / Dundas St W",15,5,7,1751972997,43.6641174,-79.4588522,1,1,1
"7642","Yonge St / St. Clair Ave",19,10,8,1751972883,43.6885046,-79.3941607681229,1,1,1
"7643","Oriole Pkwy / Kilbarry Rd",19,2,17,1751972856,43.6954486,-79.4026176,1,1,1
"7644","East Lynn Ave / Danforth Ave",15,10,5,1751972895,43.6850809,-79.3149901,1,1,1
"7645","University of Toronto Scarborough",16,3,13,1751972850,43.7842419,-79.1849889,1,1,1
"7646","University Ave / Richmond St W",14,2,11,1751972918,43.6498190344626,-79.3864127025162,1,1,1
"7647","Elm St/ University Ave (East Side)",17,9,7,1751973003,43.656373,-79.3878104,1,1,1
"7650","St Clair West Subway Station - Heath Entrance",23,1,21,1751972845,43.686352,-79.415894,1,1,1
"7654","Bloor St W / Pacific Ave",7,5,2,1751972991,43.6541245,-79.4636388,1,1,1
"7655","Danforth Ave / Dewhurst Blvd",15,2,13,1751972956,43.680207,-79.339243,1,1,1
"7656","Bloor St W / Brock Ave",11,1,9,1751972948,43.6589882,-79.438715,1,1,1
"7657","1 Market St",20,1,16,1751972942,43.6469928,-79.3706665,1,1,1
"7658","King's Mill Park",27,12,12,1751972863,43.649204068767,-79.4933633420141,1,1,1
"7659","Amroth Ave / Danforth Ave",19,4,15,1751972889,43.6856128,-79.3116827,1,1,1
"7660","285 Victoria St",39,2,37,1751972845,43.656633,-79.379625,1,1,1
"7662","Beaty Ave / Queen St W",19,18,0,1751972859,43.6393107,-79.4408141,1,1,1
"7663","Kilgour Rd / Rumsey Rd",17,3,13,1751972867,43.718039,-79.371914,1,1,1
"7664","Sunnybrook Health Centre - L Wing",15,4,10,1751972876,43.72268,-79.37644,1,1,1
"7665","Sunnybrook Health Centre - S Wing",11,7,4,1751972868,43.720998,-79.377456,1,1,1
"7666","Dundas St W / St Helen's Ave - SMART",26,1,25,1751972960,43.6504218,-79.4407647,1,1,1
"7667","Spadina Ave / Sussex Ave ",35,0,33,1751972983,43.664028,-79.4029787,1,1,1
"7668","Simcoe St / Dundas St W",20,15,3,1751972891,43.655103,-79.389295,1,1,1
"7671","Yonge St / Montgomery Ave - SMART",12,2,10,1751973018,43.7096085957009,-79.3991512500562,1,1,1
"7675","1525 Dundas St W",15,7,8,1751973000,43.64957,-79.432446,1,1,1
"7676","York University (Glendon Campus) - SMART",16,7,8,1751972956,43.7273654882463,-79.3814254607724,1,1,1
"7677","1303 Yonge St - SMART",16,2,13,1751972877,43.6846177,-79.3924592,1,1,1
"7678","York University Station (South) - SMART",16,4,12,1751972972,43.77345,-79.5002,1,1,1
"7679","York University Station (North)",15,1,14,1751972990,43.7741,-79.5005,1,1,1
"7681","25 Booth Ave",24,8,15,1751972958,43.6544839,-79.341057,1,1,1
"7682","Bathurst St / Front St W",35,26,8,1751972857,43.6413479,-79.4013882,1,1,1
"7684","Bay St / Harbour St ",23,7,13,1751972929,43.64215,-79.377,1,1,1
"7685","King St W / Brant St",22,9,11,1751972951,43.645102,-79.3974498,1,1,1
"7686","Lower Jarvis St / The Esplanade",14,13,1,1751972899,43.6478206,-79.3704721,1,1,1
"7687","Bloor St W / Gladstone Ave - SMART",10,0,8,1751972850,43.6602021,-79.4342726,1,1,1
"7691","Christie St / Dupont St",19,3,14,1751972901,43.67168,-79.421192,1,1,1
"7692","85 Lee Ave",26,14,3,1751973005,43.6700692,-79.2971326,1,1,1
"7694","Victoria Park Ave / Dawes Rd",19,11,8,1751972895,43.706466,-79.29511,1,1,1
"7695","Queen St E / Joseph Duggan Rd",19,7,12,1751972910,43.6677628,-79.3081171,1,1,1
"7696","Heyworth Cres / Kingston Rd",19,19,0,1751972913,43.6750806,-79.3068697,1,1,1
"7699","St Clair Ave W / Oakwood Ave",15,1,14,1751973022,43.678177,-79.435364,1,1,1
"7700","St Clair Ave W / Robina Ave",15,0,15,1751972991,43.68005,-79.43469,1,1,1
"7701","Roncesvalles Ave / Fermanagh Ave",19,9,8,1751972978,43.6463144692452,-79.4487940701453,1,1,1
"7702","111 Broadview Ave",18,17,1,1751972881,43.6593483,-79.3499366,1,1,1
"7703","Oak St / Sackville St",19,13,6,1751972924,43.6613642,-79.3641171,1,1,1
"7705","Colgate Ave / Carlaw Ave",19,15,4,1751972852,43.6623658,-79.3413344,1,1,1
"7706","Felstead Ave/Gillard Ave (Monarch Park)",27,11,16,1751972930,43.6791345,-79.3263159,1,1,1
"7707","Coronation Park (Martin Goodman Trail)",19,14,3,1751972910,43.635007,-79.403341,1,1,1
"7708","101 Cedarvale Ave",28,22,1,1751973009,43.6868681,-79.3110942,1,1,1
"7709","Beltline Trail / Yonge St",23,8,14,1751973001,43.6962302,-79.3950434,1,1,1
"7710","11 Spadina Rd",18,12,4,1751973001,43.6677246,-79.4041365,1,1,1
"7711","Havelock St / Dewson St",15,6,5,1751973000,43.6554793,-79.4302462,1,1,1
"7712","Queen St W / Shaw St",22,18,3,1751972975,43.6442457,-79.4161044,1,1,1
"7713","Temperance St / Bay St",23,0,19,1751972868,43.6506,-79.381285,1,1,1
"7715","Lumsden Ave / Cedarvale Ave",11,10,1,1751972850,43.693187,-79.314283,1,1,1
"7716","Church St / The Esplanade",19,10,9,1751973024,43.6469251,-79.3733192,1,1,1
"7717","Niagara St / Portland St",11,5,5,1751972873,43.6425791,-79.4001173,1,1,1
"7718","St. Andrew's Playground Park",11,6,2,1751972851,43.646552,-79.399586,1,1,1
"7719","Wolseley St / Augusta Ave",28,22,6,1751972884,43.6484201,-79.4005192,1,1,1
"7720","King St W / Portland St - SMART",32,2,29,1751972917,43.644395,-79.4006543,1,1,1
"7721","Widmer St / King St W",11,2,7,1751972931,43.6463574,-79.391206,1,1,1
"7724","Wellesley St E / Parliament St",15,2,12,1751972967,43.6682342,-79.3702641,1,1,1
"7728","Randolph Ave / Perth Ave",19,1,16,1751972988,43.6585504,-79.4497659,1,1,1
"7729","265 Armadale Ave",44,39,1,1751972986,43.6501644,-79.4829691,1,1,1
"7730","800 Fleet St (South)",43,16,20,1751972990,43.6367098521271,-79.4088051779099,1,1,1
"7731","Victoria Park Ave / Kingston Rd",15,11,4,1751972891,43.68035,-79.28357,1,1,1
"7732","Kingston Rd / Warden Ave",15,11,4,1751972978,43.6882413593181,-79.2704662803324,1,1,1
"7733","Pharmacy Ave / Danforth Ave",15,3,12,1751972978,43.6929478,-79.2833998,1,1,1
"7734","Danforth Ave / Warden Ave",15,4,11,1751972932,43.6950192,-79.2718066,1,1,1
"7735","Birchcliff Ave / Kingston Rd",15,15,0,1751972883,43.691688,-79.265027,1,1,1
"7736","Birchmount Rd / Kingston Rd",15,5,9,1751972885,43.6940129779426,-79.2625720454814,1,1,1
"7737","Kingston Rd / Glen Everest Rd",15,4,10,1751972859,43.697490048103,-79.2565514646278,1,1,1
"7738","Highview Ave / Kennedy Rd",15,1,14,1751972853,43.7024185814635,-79.2563167072858,1,1,1
"7739","Kingston Rd / Ridgemoor Ave",15,1,12,1751972847,43.7064361425743,-79.2510444335329,1,1,1
"7740","Sharpe St / Park St (Sandown Park)",15,1,14,1751972862,43.7105975,-79.2541175,1,1,1
"7741","Howard Park Ave / Parkside Dr",15,13,2,1751972943,43.648657,-79.458111,1,1,1
"7742","Eglinton Ave W / Prospect Cemetery",19,0,18,1751972910,43.69415,-79.4578258,1,1,1
"7743","Eglinton Ave W / Gilbert Ave",19,1,17,1751973004,43.6925471668997,-79.4633275927292,1,1,1
"7744","Rogers Rd / Prospect Cemetery",23,0,23,1751972917,43.68323,-79.455765,1,1,1
"7745","Bert Robinson Park",15,3,12,1751972862,43.688028,-79.460265,1,1,1
"7746","Marlee Ave / York Beltline Trail",19,4,12,1751972877,43.70163,-79.44099,1,1,1
"7747","Eglinton Ave W / Ennerdale Rd",15,0,15,1751972946,43.6950323486098,-79.4530297103119,1,1,1
"7748","Bloor St W / Old Mill Trl",19,1,16,1751972915,43.6501687,-79.4963345,1,1,1
"7749","Wendover Rd / Bloor St W (Green P)",15,5,10,1751972973,43.6492,-79.50602,1,1,1
"7750","Luttrell Ave / Danforth Ave",15,0,15,1751972962,43.6897656,-79.2939525,1,1,1
"7751","Willingdon Blvd / Bloor St W (Green P)",15,4,9,1751972978,43.64817,-79.510392,1,1,1
"7752","1926 Lake Shore Blvd W",23,11,11,1751972962,43.6357643,-79.4674917,1,1,1
"7753","36 Park Lawn Rd",15,9,6,1751972867,43.6236917,-79.4838132,1,1,1
"7754","Walter Saunders Park",15,0,14,1751972989,43.6993270725894,-79.4493630391668,1,1,1
"7755","Park Lawn Rd / Berry Rd",15,13,1,1751972979,43.6360523813425,-79.4932523876969,1,1,1
"7756","Tobermory Dr / Finch Corridor Trail",19,2,17,1751972962,43.7611741,-79.5114452,1,1,1
"7757","The Well",19,3,2,1751972948,43.6430250551659,-79.3943013776132,1,1,1
"7758","Driftwood Ave / Finch Corridor Trail",19,2,15,1751972898,43.7603624,-79.5162777,1,1,1
"7759","The Pond Rd / Shoreham Dr",15,2,13,1751972870,43.772445,-79.511912,1,1,1
"7761","Moss Park",15,6,5,1751972948,43.655972,-79.370638,1,1,1
"7762","College St / Henry St ",13,0,11,1751973021,43.6591529,-79.3947953,1,1,1
"7765","St. John's Rd / Dundas St W",15,3,11,1751972853,43.6652676160587,-79.4750212288708,1,1,1
"7766","Albany Ave / Bloor St W",14,8,3,1751972854,43.665541444218,-79.4101031760574,1,1,1
"7767","Pioneer Village Subway Station",11,2,8,1751972983,43.7764901626558,-79.5085364909097,1,1,1
"7768","Armoury St / Chestnut St",14,0,12,1751972890,43.6535179969088,-79.3859106379593,1,1,1
"7769","Lake Shore Blvd W / Brow Dr",15,10,5,1751972931,43.5914100034525,-79.544181903441,1,1,1
"7770","Spadina Ave / Sullivan St",23,7,13,1751972979,43.6508278555267,-79.396980998217,1,1,1
"7771","St. Clair Ave W / Osler St",11,6,5,1751972978,43.6739269797493,-79.460684790213,1,1,1
"7772","Simcoe St / King St W",15,2,11,1751972972,43.6475083513062,-79.3860443655576,1,1,1
"7773","Grenoble Dr / Gateway Blvd",14,4,10,1751972848,43.7151321109808,-79.3341362332046,1,1,1
"7774","Grenoble Dr / Deauville Ln",15,14,0,1751972955,43.7164967577466,-79.3308943993362,1,1,1
"7775","Grenoble Dr / Vendome Pl",11,3,8,1751972893,43.7155379989674,-79.3281142766344,1,1,1
"7776","Ferrand Dr / Rochefort Dr",19,5,14,1751972958,43.7196325352378,-79.3319995086678,1,1,1
"7777","Thorncliffe Park Dr / Leaside Park Trail",15,6,9,1751972879,43.7040040529784,-79.3480701507874,1,1,1
"7778","75 Thorncliffe Park Dr",11,1,9,1751972956,43.7051832827943,-79.3422472996295,1,1,1
"7779","165 McRae Dr",15,6,9,1751972868,43.7058745466251,-79.3680059560285,1,1,1
"7780","Mount Pleasant Rd / Davisville Ave - SMART",16,7,9,1751972981,43.7008822568697,-79.3873601666591,1,1,1
"7781","St Clair Ave W / Avenue Rd ",14,5,9,1751972857,43.6868893802823,-79.4009951314745,1,1,1
"7782","Downsview Park Subway Station - SMART",20,1,19,1751972873,43.753107,-79.479626,1,1,1
"7783","60 Carl Hall Rd - SMART",20,2,17,1751972929,43.7479639342367,-79.4752121735413,1,1,1
"7784","Downsview Park Blvd / Keele St  - SMART",17,14,3,1751972947,43.7367382926211,-79.4822719556809,1,1,1
"7785","Keele St / Dovehouse Ave - SMART",16,3,13,1751972889,43.7494501,-79.4869662,1,1,1
"7787","HTO Park West",31,19,9,1751972911,43.6373714593192,-79.3897695870331,1,1,1
"7788","Queens Quay E / Lower Jarvis St ",23,22,1,1751972944,43.6439276736633,-79.3687301736982,1,1,1
"7789","75 Holly St",23,17,5,1751972960,43.7063279,-79.3962499,1,1,1
"7790","Lynn Williams St / Pirandello St ",17,7,8,1751972962,43.639124514797,-79.4142316672161,1,1,1
"7791","Ossington Ave / Bruce St",15,5,10,1751972925,43.6457023670517,-79.419331920537,1,1,1
"7792","Gladstone Ave / Queen St W",15,15,0,1751972899,43.643141393374,-79.4272801594551,1,1,1
"7794","York St / Harbour St (Love Park)",15,9,3,1751972937,43.6410166305332,-79.3803590375038,1,1,1
"7796","Dundas St E / River St",18,11,5,1751972948,43.661152,-79.358505,1,1,1
"7798","Shuter St/River St",15,10,5,1751973008,43.659296,-79.358035,1,1,1
"7799","Danforth Ave / Danforth Rd",15,1,12,1751972915,43.6936220678415,-79.2771052969589,1,1,1
"7800","Brimley Rd / McCowan District Park",19,5,13,1751972875,43.7270408636675,-79.2439140244675,1,1,1
"7801","Parkcrest Dr / Kingston Rd",15,2,11,1751972976,43.7359671922425,-79.2199522148193,1,1,1
"7802","King St W / Jameson Ave - SMART",12,6,4,1751972882,43.637357958881,-79.4361797588608,1,1,1
"7803","Scarborough Soccer Centre",19,2,17,1751972975,43.7154661,-79.2876595,1,1,1
"7804","Lansdowne Ave / Seaforth Ave ",12,12,0,1751972971,43.6429043959567,-79.4374605944775,1,1,1
"7805","Pharmacy Ave / Teesdale Pl",19,6,13,1751972882,43.6973560808749,-79.285287110197,1,1,1
"7806","Danforth Rd / Birchmount Rd ",15,4,10,1751972868,43.70688,-79.26851,1,1,1
"7807","552 Birchmount Rd",15,1,14,1751972874,43.711762788596,-79.2702815288969,1,1,1
"7808","Eastgate Cres / Pharmacy Ave ",15,1,14,1751972972,43.7110442448186,-79.2912731384558,1,1,1
"7809","Firvalley Ct / Warden Ave",19,2,17,1751972962,43.7032112,-79.2787149,1,1,1
"7810","Avenue Rd / Cumberland St ",15,2,13,1751973017,43.6698216950594,-79.3944461460327,1,1,1
"7811","Midland Ave / Kingston Rd",19,6,9,1751972882,43.7128578,-79.2487086,1,1,1
"7812","Bellamy Rd S / Kingston Rd",19,9,10,1751972914,43.7323277855009,-79.2249661987693,1,1,1
"7813","Yonge St / Merton St ",23,6,16,1751972928,43.6962750705313,-79.3962939619187,1,1,1
"7814","Fenwood Ht / Kingston Rd",15,8,7,1751972919,43.7269016982168,-79.2292039658266,1,1,1
"7815","Avenue Rd / Macpherson Ave ",15,1,14,1751972909,43.6779437600995,-79.3983627858789,1,1,1
"7816","Bay St / Dundas St W",55,2,51,1751973019,43.6553507784571,-79.383459667598,1,1,1
"7817","Shaw St / King St W",15,7,7,1751972942,43.6412561641921,-79.4150299404754,1,1,1
"7818","Soudan Ave / Yonge St ",19,8,11,1751972870,43.7043096,-79.3972815,1,1,1
"7819","Avenue Rd / Oxton Ave ",15,2,13,1751972946,43.6971116030523,-79.4053729822784,1,1,1
"7820","1612 Danforth Ave ",15,15,0,1751972992,43.6837078806533,-79.3226245363388,1,1,1
"7821","Lisgar St / Queen St W - SMART",20,15,5,1751972914,43.6429917416414,-79.4235591156325,1,1,1
"7822","Leslie St / Commissioners St  ",19,16,3,1751972942,43.6572754973901,-79.3266154419418,1,1,1
"7823","Greenwood Ave / Sammon Ave",11,4,7,1751972853,43.6869867251666,-79.3347819828033,1,1,1
"7824","Warden Subway Station",19,4,14,1751972924,43.711610980233,-79.2805556566223,1,1,1
"7825","Kingston Rd / Scarborough Golf Club Rd",14,1,12,1751972863,43.7453110370026,-79.2097065078782,1,1,1
"7826","Greenwood Ave / Gerrard St E",15,11,4,1751972987,43.670369178032,-79.3278269864509,1,1,1
"7827","Chatham Ave / Byron Ave",15,4,11,1751972854,43.6798678328407,-79.334246138623,1,1,1
"7828","Wakunda Pl / O'Connor Dr",11,0,10,1751972881,43.7160202437718,-79.3047092517501,1,1,1
"7829","Tiago Ave / Westview Blvd",15,1,13,1751972881,43.711016215527,-79.3067574389162,1,1,1
"7830","Plaxton Dr / St Clair Ave E",15,1,13,1751973022,43.7075175596195,-79.3025206631394,1,1,1
"7831","Victoria Park Ave / Edge Park Ave",18,1,17,1751973003,43.7176786795349,-79.2996158031447,1,1,1
"7832","Finch Subway Station ",19,1,18,1751972960,43.781877158753,-79.4152850287493,1,1,1
"7833","Glencairn Subway Station",15,3,11,1751972891,43.7092576381086,-79.4416910503666,1,1,1
"7834","Glen Long Community Centre",15,0,15,1751973020,43.7082099264378,-79.4562780871719,1,1,1
"7835","Caledonia Rd / Lotherton Pathway",19,0,18,1751973013,43.7075643668565,-79.4657147496681,1,1,1
"7836","Harvie Ave / Rogers Rd",19,1,18,1751973006,43.684020311357,-79.4529788533035,1,1,1
"7837","Ling Rd / Morningside Ave",19,11,5,1751973011,43.7666638178887,-79.1852176534424,1,1,1
"7838","Lake Shore Blvd W / Legion Rd",19,7,12,1751972867,43.6205263076322,-79.4832022423799,1,1,1
"7839","Lake Shore Blvd W / Seventeenth St",11,5,5,1751972996,43.598419260319,-79.5156110239426,1,1,1
"7840","Mabelle Park",15,2,13,1751973020,43.6453894793256,-79.5276822170925,1,1,1
"7841","Islington Subway Station (Aberfoyle Cres)",15,7,7,1751972911,43.6456585915462,-79.5233993895493,1,1,1
"7842","Lake Shore Blvd W / Long Branch Ave",11,6,2,1751973010,43.5944583319628,-79.5338739085983,1,1,1
"7843","Uno Dr / The Queensway",15,11,4,1751972858,43.6264932999219,-79.5035816764154,1,1,1
"7844","Second St / Lake Shore Blvd W",15,7,7,1751972852,43.601914881185,-79.4994188865429,1,1,1
"7845","Sixth St / Lake Shore Blvd W",15,11,1,1751972872,43.6011622910983,-79.5041604662704,1,1,1
"7846","Bloor St W / Dundas St W (2)",15,7,8,1751972992,43.6428524464432,-79.5319948920654,1,1,1
"7848","Gerrard St E / Nasmith Ave ",23,10,11,1751972866,43.6627361877986,-79.3625310074097,1,1,1
"7849","Viewmount Park",15,0,14,1751972920,43.707355726541,-79.4372307220901,1,1,1
"7850","Maud St / Adelaide St W - SMART",16,10,4,1751972937,43.6460145694434,-79.3996049772635,1,1,1
"7851","Keele St / Ingram Dr",15,11,3,1751972916,43.6987069496669,-79.4756586460327,1,1,1
"7852","York Recreation Centre",23,5,17,1751972924,43.6881530792451,-79.4821978994057,1,1,1
"7853","Trethewey Dr / Black Creek Dr",15,1,14,1751972882,43.6954984002798,-79.4880939448267,1,1,1
"7854","Jane St / Haney Ave",19,3,15,1751972921,43.6743457123134,-79.4948437786083,1,1,1
"7855","Scarlett Rd / Eileen Ave",15,3,10,1751972882,43.6685109065054,-79.5007648392868,1,1,1
"7856","Scarlett Rd / Old Scarlett Rd ",14,3,8,1751972963,43.6782763066366,-79.506673324012,1,1,1
"7857","Eglinton Ave W / Venn Cres",19,2,17,1751972970,43.6914392068112,-79.4690863479546,1,1,1
"7858","Rogers Rd / Bicknell Ave",23,9,13,1751972891,43.6818952621549,-79.4736382392868,1,1,1
"7859","Mallaby Park ",15,0,15,1751972864,43.7061910923971,-79.5326279558197,1,1,1
"7860","Cruickshank Park",15,1,13,1751972898,43.7023860650084,-79.5259475832415,1,1,1
"7861","Emmett Ave",19,5,14,1751972875,43.6873551409644,-79.5062331380634,1,1,1
"7862","Jane St / Weston Rd",15,3,9,1751972978,43.691444644143,-79.5015458386925,1,1,1
"7863","Jane St / Queens Dr",15,3,10,1751972900,43.706738049623,-79.5047754380287,1,1,1
"7864","Sussex Ave / St George St",15,0,14,1751972958,43.6653042789654,-79.3993826380287,1,1,1
"7865","2700 Eglinton Ave W",43,23,19,1751973018,43.6907460063715,-79.4782014334433,1,1,1
"7866","697 Lansdowne Ave ",23,17,0,1751972867,43.6592218437356,-79.4427741024468,1,1,1
"7867","15 Price St ",15,9,6,1751973001,43.6799477790745,-79.38994813684,1,1,1
"7868","Sheppard Ave W / Chesswood Dr",19,0,19,1751973006,43.7555839711229,-79.4744603268448,1,1,1
"7870","Humber River Hospital ",15,2,13,1751972971,43.7253788418368,-79.487196742189,1,1,1
"7871","Jane St / Lawrence Ave W",14,6,5,1751972930,43.702340220598,-79.5034738951412,1,1,1
"7872","Keele St / Catford Rd",15,10,4,1751972911,43.75919330633,-79.4900104685089,1,1,1
"7873","Sentinel Rd / Finch Ave W",15,7,7,1751972860,43.7607396389248,-79.5000273116394,1,1,1
"7874","The Pond Rd / Ian Macdonald Blvd",15,3,12,1751972898,43.7708672902877,-79.498129906607,1,1,1
"7875","Oakdale Community Centre",13,7,6,1751972858,43.7475149603877,-79.5132569853195,1,1,1
"7876","Jane St / Yewtree Blvd",15,12,3,1751972943,43.7553172850243,-79.5170470822784,1,1,1
"7877","Jane St / Yorkwoods Gt",15,12,2,1751972982,43.7503016975738,-79.5157755743439,1,1,1
"7878","Weston Rd / Sheppard Ave W",15,1,14,1751972895,43.7326284941509,-79.5381993243286,1,1,1
"7879","Weston Rd / Lanyard Rd",14,8,6,1751972882,43.748713,-79.541808,1,1,1
"7880","Lindylou Rd / Lanyard Rd",15,2,13,1751972999,43.7484542140731,-79.5504039969242,1,1,1
"7881","Queens Quay E / Merchants' Wharf",27,20,7,1751972852,43.6464302633314,-79.3618163165329,1,1,1
"7882","Tangiers Rd / Finch Ave W",15,5,10,1751972982,43.7637696413018,-79.4880924259338,1,1,1
"7883","Wynford Heights Cres / Concorde Pl",11,5,4,1751973015,43.7274977825974,-79.3271422220901,1,1,1
"7884","Bartley Park ",15,6,8,1751973023,43.7221116643646,-79.3086483091926,1,1,1
"7885","Brooklawn Ave / Kingston Rd",11,7,4,1751972918,43.7217614006912,-79.2359137196434,1,1,1
"7886","Jane St / Finch Ave W",15,12,3,1751972881,43.7592922831695,-79.5183741465576,1,1,1
"7887","800 Fleet St (North)",43,35,1,1751972879,43.6368285615458,-79.4088416036701,1,1,1
"7888","The Kingsway / Ashley Rd",15,4,10,1751973002,43.6627959447884,-79.5195982797622,1,1,1
"7889","Dundas St W / Prince Edward Dr N",19,2,15,1751972952,43.6603242687655,-79.5115435042297,1,1,1
"7890","60 Broadway Ave",23,11,11,1751972869,43.710244295996,-79.3957874460327,1,1,1
"7891","Opposite 1103 Leslie St",19,4,14,1751972988,43.7209316459888,-79.3498941635071,1,1,1
"7893","Overlea Blvd / Thorncliffe Park Dr",19,6,13,1751972995,43.7075559685955,-79.3427202447746,1,1,1
"7894","Millwood Rd / Southvale Dr",15,4,11,1751972948,43.7024171721528,-79.361759329361,1,1,1
"7895","Keele St / Lloyd Ave",15,4,9,1751972921,43.6711553264258,-79.4670159775693,1,1,1
"7896","Arlington Parkette",15,0,15,1751972877,43.6910500519705,-79.4328174649429,1,1,1
"7897","50 Overlea Blvd",15,6,9,1751972866,43.707225,-79.345324,1,1,1
"7898","University Ave / Gerrard St W - SMART(South)",16,2,14,1751972886,43.6574815328641,-79.3892139601883,1,1,1
"7899","Queens Park Cres / College St ",23,2,18,1751972903,43.6601812763687,-79.3908327152054,1,1,1
"7900","Simcoe St / Elm St",11,2,8,1751972886,43.6560388417145,-79.3897038773849,1,1,1
"7901","Bloor St W / Kingsmill Rd",11,1,10,1751972993,43.6492789013174,-79.5031299558197,1,1,1
"7902","Gunns Rd / Lavender Creek Trail",15,2,13,1751972862,43.6755319731684,-79.4719974006637,1,1,1
"7903","St Clair Ave W / Symes Rd",15,5,10,1751972996,43.6700421344167,-79.4789424818056,1,1,1
"7904","Palmerston Blvd / Lennox St",11,2,8,1751972873,43.6633507099589,-79.4131279831612,1,1,1
"7906","Princess St / Front St E",14,6,6,1751972975,43.650297574961,-79.3664846034164,1,1,1
"7907","365 Lippincott St",41,14,22,1751972928,43.6649482,-79.40947,1,1,1
"7909","E.T Seton Park - South ",23,4,18,1751972856,43.7050346185714,-79.3354729203766,1,1,1
"7910","Eglinton Ave E / Brentcliffe Rd",15,6,9,1751972872,43.7143057930175,-79.3608904504013,1,1,1
"7911","King St W / York St (2)",19,3,16,1751973016,43.647968822765,-79.3831696135265,1,1,1
"7912","Joe Shuster Way / King St W ",19,14,3,1751972943,43.64039672322,-79.4237424131447,1,1,1
"7913","St. George St / Willcocks St",35,2,32,1751973000,43.6624527444956,-79.3978384219513,1,1,1
"7914","York St / Wellington St W (2)",27,6,19,1751972972,43.647043061824,-79.3831412068154,1,1,1
"7915","Rogers Rd / Watt Ave",15,2,12,1751972883,43.6823368,-79.4680594,1,1,1
"7916","University Ave / Pearl St ",19,3,15,1751972928,43.6483680938524,-79.3853510232788,1,1,1
"7917","King St W / University Ave",38,3,34,1751972849,43.6478180854091,-79.3842799907379,1,1,1
"7918","Albion Rd/ Arcot Blvd",15,6,9,1751972879,43.7276217093164,-79.5525490293929,1,1,1
"7919","Armel Ct / Albion Rd",18,1,17,1751972956,43.7215329668732,-79.5455834809678,1,1,1
"7920","75 Tandridge Cres",15,5,10,1751973014,43.7295782735861,-79.5469979387272,1,1,1
"7921","Islington Ave / Finch Ave W",15,1,14,1751972960,43.7444525799176,-79.5682498572166,1,1,1
"7922","35 Erindale Ave",23,21,0,1751972940,43.67729,-79.35741,1,1,1
"7923","Trethewey Dr / Jane St",19,6,12,1751972980,43.6974170705586,-79.5007983091232,1,1,1
"7924","Duncan St / Adelaide St W - SMART",12,1,9,1751973000,43.6481305756973,-79.388581061377,1,1,1
"7925","Niagara St / King St W - SMART",24,11,13,1751972947,43.6428132340837,-79.4075141558891,1,1,1
"7926","McRae Dr / Laird Dr - SMART",24,2,20,1751972917,43.7097929682259,-79.3638921446049,1,1,1
"7927","Strachan Ave / East Liberty St - SMART",24,20,1,1751973012,43.6390647023699,-79.4108099616446,1,1,1
"7928","Simcoe St / Pullan Pl",47,0,46,1751972864,43.6510529041254,-79.3876494322787,1,1,1
"7929","Spadina Ave / Bulwer St- SMART ",12,10,2,1751972861,43.6493544752738,-79.3967571333285,1,1,1
"7930","Dunn Ave / Queen St W",15,13,1,1751973018,43.6395227542118,-79.4339597681573,1,1,1
"7931","Symes Rd / Glen Scarlett Rd - SMART",16,0,15,1751972863,43.6733915249315,-79.4779836781457,1,1,1
"7932","Boston Ave / Queen St E- SMART",12,9,2,1751972865,43.6616016509643,-79.3389458285727,1,1,1
"7933","Elizabeth St / Elm St",23,3,20,1751973007,43.6570908165693,-79.3859366883427,1,1,1
"7934","19 Glendora Ave",11,5,6,1751972999,43.7592114383339,-79.409603648017,1,1,1
"7935","Ramsden Park",15,1,13,1751972921,43.6761845613028,-79.3896249640015,1,1,1
"7936","Adelaide St W / Bay St (South)",15,0,15,1751972957,43.650116375938,-79.3795306886033,1,1,1
"7937","Adelaide St W / Yonge St",19,7,11,1751972939,43.6503800232566,-79.3787277120385,1,1,1
"7938","Portland St / Wellington St W",15,12,0,1751972881,43.6429016715293,-79.3993703313433,1,1,1
"7939","Princes' Gates",17,9,7,1751972904,43.6346732367601,-79.4089732188665,1,1,1
"7940","Lillian St / Soudan Ave - SMART",32,9,22,1751972881,43.7060728724846,-79.3935616165329,1,1,1
"7941","Hanna Ave / Snooker St",15,13,2,1751972881,43.639547,-79.420022,1,1,1
"7942","Hillsdale Ave E / Mount Pleasant Rd",15,6,8,1751972937,43.705121266154,-79.3890271081274,1,1,1
"7943","OCAD University",23,3,19,1751972993,43.6523155230479,-79.3909118500024,1,1,1
"7944","Harbord St / Grace St (Bickford Park)",23,3,19,1751972891,43.6599536351805,-79.4178738888855,1,1,1
"7945","Front St W / Spadina Ave",19,6,13,1751972896,43.6423548034036,-79.3951975187714,1,1,1
"7946","Richmond St W / Bathurst St",15,13,1,1751972887,43.6466674842523,-79.4029959134918,1,1,1
"7947","Niagara St / Queen St W ",11,10,1,1751972911,43.6457286846684,-79.4099068018177,1,1,1
"7948","Bathurst St / Housey St",23,14,7,1751972998,43.6378190396121,-79.4001317675285,1,1,1
"7949","Thompson St / Carroll St",19,15,3,1751972976,43.6590706498324,-79.3524013422584,1,1,1
"7950","Crawford St / Lobb Ave",23,19,3,1751972999,43.6465494140102,-79.4155890031799,1,1,1
"7951","Fort York Blvd / Grand Magazine St",19,8,10,1751972973,43.6375878290447,-79.4031423220901,1,1,1
"7952","Adelaide St W / York St ",19,8,8,1751972938,43.6491919790139,-79.3836323742745,1,1,1
"7953","Church St / Shuter St",14,7,5,1751972919,43.65505698169,-79.3765102460327,1,1,1
"7954","Adelaide St E / Parliament St",23,18,5,1751972891,43.6537833743251,-79.3633597337295,1,1,1
"7955","Wellesley St E / Jarvis St",22,1,21,1751972977,43.6662047,-79.3790122,1,1,1
"7956","Benshire Dr / The Meadoway",11,1,10,1751972944,43.761740920195,-79.2447396141556,1,1,1
"7957","Brimley Rd / Lawrence Ave E ",39,0,36,1751972970,43.754048543993,-79.2553167552948,1,1,1
"7958","Centennial College (Ashtonbee Campus)",19,1,18,1751972940,43.7300360184561,-79.2920036521843,1,1,1
"7959","Bellamy Rd N / The Meadoway",15,1,12,1751972924,43.7650727181818,-79.2383538161468,1,1,1
"7960","Markham Rd / The Meadoway ",19,4,14,1751972911,43.7712189487363,-79.2295652698364,1,1,1
"7961","Ellesmere Rd / Markham Rd",15,6,7,1751973011,43.7768293875108,-79.2305003612381,1,1,1
"7962","Slan Ave / Scarborough Golf Club Rd",15,6,8,1751972917,43.7732726171126,-79.2197148527786,1,1,1
"7963","Cedar Dr / Eglinton Ave E",11,0,10,1751972928,43.7442082021558,-79.2156463661316,1,1,1
"7964","Kennedy Rd/Ranstone Gdns (Jack Goodlad Park)",15,3,10,1751973007,43.7419057094063,-79.2718188764046,1,1,1
"7965","Eglinton Ave E / Brimley Rd",19,7,12,1751972921,43.7369525729339,-79.2479836724915,1,1,1
"7966","Albany Ave / Dupont St",15,0,14,1751972968,43.6734889997723,-79.4133952055573,1,1,1
"7967","Gordonridge Pl / Danforth Rd",15,1,13,1751972900,43.7272907729026,-79.2523790719665,1,1,1
"7968","McCowan Rd / Trudelle St",19,6,13,1751972844,43.7403390157521,-79.2393531962952,1,1,1
"7969","Bayview Ave / Finch Recreational Trail",19,7,12,1751973023,43.7890686986395,-79.3931509600494,1,1,1
"7970","Willowdale Ave / Bishop Ave ",19,7,10,1751972953,43.7838725246725,-79.4078680981476,1,1,1
"7971","Talbot Rd / Finch Hydro Corridor",15,0,13,1751973003,43.7822529811063,-79.4236706283112,1,1,1
"7972","Eglinton Ave E / Mason Rd ",11,2,8,1751972920,43.7420374405226,-79.2248868008026,1,1,1
"7973","Lawrence Ave E / Don Mills Trail",19,15,4,1751972922,43.7345818591229,-79.3548539927292,1,1,1
"7974","Kempford Blvd / Yonge St",19,8,11,1751972950,43.7768572350998,-79.4151161430729,1,1,1
"7975","Empress Ave / Yonge St",19,10,9,1751972959,43.7693954566255,-79.4126652176971,1,1,1
"7976","Yonge St / Sheppard Ave E",18,3,15,1751972904,43.761286057775,-79.4107164420527,1,1,1
"7977","Leslie Subway Station",15,4,10,1751972992,43.7703789237079,-79.3670273419568,1,1,1
"7978","Yonge St / North York Blvd",23,3,20,1751972858,43.7672658993493,-79.4126348981476,1,1,1
"7979","Bond Ave / Don Mills Trail",19,12,7,1751972848,43.7447583425304,-79.3534806994057,1,1,1
"7631","Florence Gell Park",15,13,0,1751972974,43.6619658232602,-79.4985106527786,1,1,1
"7981","Duncan Mill Rd / Valleybrook Dr",15,5,10,1751972892,43.7616712534246,-79.3525830269836,1,1,1
"7982","Finch Ave W / Wilmington Ave",19,8,10,1751972904,43.7706024442805,-79.4599758917877,1,1,1
"7983","York Mills Rd / Lesmill Rd",14,11,3,1751972999,43.7549215557014,-79.3517483846558,1,1,1
"7984","Lake Shore Blvd W / Bathurst St",23,22,1,1751972951,43.6367559225687,-79.3992053895493,1,1,1
"7985","Hawksbury Dr / Sheppard Ave E ",15,6,9,1751972918,43.7681623944478,-79.38312075159,1,1,1
"7986","Sheppard Ave E / Leslie St",19,19,0,1751972968,43.771148300319,-79.3638116645569,1,1,1
"7987","Shaughnessy Blvd / Sheppard Ave E",15,5,10,1751972950,43.7735146269402,-79.3530622411392,1,1,1
"7988","Brahms Ave / Finch Ave E",19,6,13,1751972993,43.7923632644299,-79.3583631802872,1,1,1
"7989","Don Mills Rd / Fairview Mall Dr",15,1,14,1751973007,43.7788855079041,-79.3483716976227,1,1,1
"7990","Don Mills Rd / Goodview Rd",15,4,11,1751973003,43.7853464744797,-79.3536292103119,1,1,1
"7991","Kingston Rd / Markham Rd",15,0,14,1751972935,43.7387843892732,-79.2174648570084,1,1,1
"7992","Fairglen Cres / Weston Rd",11,0,11,1751973022,43.7087674747708,-79.5344519239426,1,1,1
"7993","Wells St / Brunswick Ave",15,8,7,1751972940,43.6710516375838,-79.4090475521149,1,1,1
"7760","Grand Avenue Park",23,8,13,1751972861,43.623708,-79.490054,1,1,1
"7994","Eglinton Ave E / Victoria Park Ave",11,1,10,1751972902,43.7248610323054,-79.3035130629517,1,1,1
"7995","Eglinton Ave W / Oakwood Ave",15,1,14,1751973019,43.6970502302877,-79.4437599043325,1,1,1
"7996","Scarborough GO Station",22,18,4,1751973003,43.7170472128686,-79.2546103078911,1,1,1
"7997","3220 Bloor St W",38,13,22,1751972855,43.6461867574952,-79.5176253674746,1,1,1
"7998","Eglinton West Subway Station",19,5,14,1751973017,43.6986710396861,-79.4368073856036,1,1,1
"7999","Lawrence Ave W / Marlee Ave",15,5,8,1751972917,43.7155526927409,-79.4461544565374,1,1,1
"8000","16 Riverview Gardens ",31,23,8,1751972882,43.6488371215979,-79.4867529425066,1,1,1
"8001","Union Station (North)",16,4,10,1751972960,43.6458085526466,-79.3805465232474,1,1,1
"8002","Grantbrook St / Finch Hydro Corridor Trail",15,5,10,1751972946,43.7804683053612,-79.4328041548848,1,1,1
"8003","Tecumseth St / Tecumseth Pl",11,11,0,1751973009,43.6426979962,-79.4049993694586,1,1,1
"8004","21 Pleasant Blvd (1)",11,0,10,1751972949,43.6872118103153,-79.3926959180425,1,1,1
"8005","21 Pleasant Blvd (2)",11,11,0,1751972886,43.6872042641154,-79.3926972652451,1,1,1
"8006","803 Richmond St W",22,19,3,1751972954,43.6443818969424,-79.4108533793123,1,1,1
"8007","385 Pacific Ave",29,12,16,1751972977,43.6651094724602,-79.4683358142309,1,1,1
"8008","Brookdale Ave / Yonge St",16,5,11,1751972974,43.7299199927157,-79.4037271979714,1,1,1
"8009","1 Shortt St",38,18,15,1751972960,43.6959299331303,-79.4519013960952,1,1,1
"8011","33 Queen St E",31,29,0,1751973012,43.6523196075425,-79.3768485767478,1,1,1
"8012","Cherry St / Polson St",19,14,2,1751972960,43.643320932767,-79.3512094851807,1,1,1
"8013","Logan Ave / Eastern Ave - SMART",12,9,3,1751972882,43.6579255010755,-79.3414348692942,1,1,1
"8014","Wellington St W / Blue Jays Way",23,3,19,1751972942,43.644733870701,-79.3916896326268,1,1,1
"8016","Queens Quay E / Freeland St",23,14,6,1751972913,43.6424994808192,-79.3728577931847,1,1,1
"8017","Pharmacy Ave / Eglinton Ave E ",15,5,10,1751973008,43.7253446699245,-79.2976874085289,1,1,1
"8018","Saulter St / Queen St E - SMART",16,13,2,1751972861,43.6589769715956,-79.3471531662705,1,1,1
"8015","Spadina Ave / Dundas St W - SMART",12,2,8,1751972844,43.6523523012161,-79.3980161769356,1,1,1
"8019","Scrivener Sq / Yonge St",15,0,15,1751972957,43.6805665030256,-79.3908297264401,1,1,1
"8020","Euclid Ave / Queen St W - SMART",9,8,1,1751972926,43.6465680640096,-79.4076868902591,1,1,1
"7010","King St W / Spadina Ave",19,4,13,1751972927,43.6451424944937,-79.3951035828381,1,1,1
"8021","Torresdale Ave / Finch Ave W",19,3,15,1751972982,43.7724556348983,-79.4510208541343,1,1,1
"7202","York St / Queen St W (City Hall)",27,2,22,1751972923,43.6516061917946,-79.3840469333435,1,1,1
"7266","Victoria Park Subway Station - SMART",12,3,9,1751972886,43.6951015219883,-79.289703032016,1,1,1
"8022","Sunrise Ave / Victoria Park Ave",11,1,10,1751972988,43.7194091289023,-79.3022611709694,1,1,1
"8023","Shaw St / College St",11,1,7,1751972869,43.6551193,-79.4201454,1,1,1
"7133","Summerhill Subway Station",11,1,9,1751972988,43.6820118906123,-79.3913070185242,1,1,1
"8024","Concord Ave / Bloor St W (South)",11,0,10,1751972855,43.6614738715903,-79.4267678838427,1,1,1
"8026","Jack Layton Ferry Terminal",23,1,21,1751972882,43.6410316193689,-79.3767044272613,1,1,1
"8030","Centre Island Ferry Dock",35,33,1,1751972974,43.6220206522139,-79.3788820340049,1,1,1
"8031","Ancaster Rd / Spalding Rd",15,0,15,1751972994,43.7335948635825,-79.46651489023,1,1,1
"7688","High Park Blvd / Parkside Dr",15,5,9,1751972969,43.6445643194223,-79.4573705897228,1,1,1
"8032","Roding St / Nash Dr",15,7,8,1751972902,43.728859645844,-79.4920299765823,1,1,1
"8033","Ridge Rd / Wilson Ave ",19,10,9,1751972960,43.7237869593083,-79.4941626981476,1,1,1
"7033","Union Station",24,12,10,1751972994,43.645609,-79.380386,1,1,1
"8029","Hanlan's Point Beach",47,4,42,1751973016,43.6190436058123,-79.3906883240629,1,1,1
"8027","Hanlan's Point Ferry Dock",39,24,14,1751973013,43.6278286673252,-79.3896215660412,1,1,1
"8028","Ward's Island Ferry Dock",25,9,16,1751972935,43.629460096885,-79.3561546542184,1,1,1
"8034","Exbury Rd / Jane St",15,3,12,1751972992,43.7295224865538,-79.5101425092621,1,1,1
"8035","Dubray Ave / Wilson Ave",19,8,11,1751973021,43.7286176289777,-79.4780012294304,1,1,1
"8025","Front St E / Scott St (2)",11,10,1,1751972980,43.6476241415141,-79.3755249889202,1,1,1
"8036","Jane St / Sheppard Ave W",19,2,17,1751972872,43.7390134137019,-79.5128631792721,1,1,1
"8037","Bathurst St / Sheppard Ave W",15,0,14,1751972887,43.7551762288098,-79.4381218265108,1,1,1
"8038","Finch Ave E / Upper Don Recreational Trail ",11,7,4,1751972858,43.7889378831231,-79.3748886875059,1,1,1
"8039","Ruddington Dr / Finch Recreational Trail",19,0,18,1751972954,43.7897818888442,-79.3898862171619,1,1,1
"8040","Old Cummer GO Station",23,11,12,1751972856,43.7944233828024,-79.3692587950718,1,1,1
"8041","Wilmington Ave / Kennard Ave",11,1,10,1751972846,43.7611584810373,-79.4560000049282,1,1,1
"8042","Fairview Mall Dr / Fairview Mall Dr E",19,5,14,1751972873,43.779672154399,-79.3429500491085,1,1,1
"7427","Northern Dancer Blvd / Lake Shore Blvd E",26,15,11,1751972965,43.663162,-79.309765,1,1,1
"8043","Birchmount Rd / The Meadoway",15,4,10,1751973004,43.7389321211054,-79.2811803258297,1,1,1
"8044","Scarborough Village Park",11,0,11,1751972859,43.7471511343785,-79.2145023591385,1,1,1
"8045","Prudential Dr / Midland Ave",15,2,13,1751973008,43.7495662125791,-79.2657219092621,1,1,1
"8046","Markham Rd / Cougar Crt",11,1,6,1751973005,43.744988965771,-79.2194436632988,1,1,1
"8047","Lawrence Ave E / Overture Rd",11,6,5,1751972998,43.7656405392477,-79.1996149312134,1,1,1
"8048","Morningside Ave / Kingston Rd",15,4,6,1751972897,43.76907926671,-79.1871136306885,1,1,1
"7698","St Clair Ave W / Caledonia Rd",13,1,12,1751972977,43.6756664338495,-79.453930933004,1,1,1
"8049","YZD",19,8,11,1751973018,43.7368015,-79.4687878,1,1,1
"8051","Homewood Ave / Wellesley St E - SMART",12,4,8,1751972873,43.6669780117807,-79.3759451868685,1,1,1
"8052","Warden Ave / The Meadoway",11,8,3,1751972972,43.7355478135638,-79.2905190837737,1,1,1
"8053","Galloway Rd / Kingston Rd ",17,3,12,1751972883,43.7624724450966,-79.1946925067476,1,1,1
"8054","Sheppard Ave E / Brian Dr",19,4,15,1751972964,43.7751833232896,-79.3304433810173,1,1,1
"8055","Sheppard Ave E / Willowdale Ave ",11,8,3,1751972875,43.7641117429842,-79.3983369965274,1,1,1
"8056","Parkway Forest Dr / Forest Manor Rd (North)",19,1,18,1751972948,43.7747055795476,-79.3427532945751,1,1,1
"8057","Parkway Forest Dr / Forest Manor Rd (South)",19,12,7,1751972949,43.7695296872239,-79.3433817140349,1,1,1
"8058","Maxome Ave / Finch Hydro Corridor",19,1,17,1751972846,43.7861161937811,-79.4003905408874,1,1,1
"8059","Ionview Rd / Eglinton Ave E",11,2,9,1751973018,43.7317027935099,-79.2714920178692,1,1,1
"8060","Gilder Dr / Midland Ave",15,2,13,1751972974,43.7365986,-79.2578451,1,1,1
"8061","Stansbury Cr / Midland Ave",11,3,8,1751972891,43.7425135275089,-79.2612431038377,1,1,1
"8062","Bay St / King St W",23,2,21,1751972996,43.6483753414855,-79.3799828091115,1,1,1
"8064","Kennedy Rd / Bertrand Ave",11,1,10,1751972859,43.7374617671374,-79.2699593767259,1,1,1
"8063","Maida Vale Park",11,0,11,1751972863,43.7331039681864,-79.2770281992636,1,1,1
"8065","Brockley Dr / Lawrence Ave E",11,2,9,1751972872,43.7523548511766,-79.2627965885723,1,1,1
"8066","Danforth Rd / Savarin St",15,8,6,1751972924,43.7430724706256,-79.2453181221997,1,1,1
"7633","Noble St / Queen St W",15,7,4,1751972890,43.6422847022112,-79.4291990623141,1,1,1
"7693","Mutual St / Shuter St",23,15,8,1751972998,43.6549196775549,-79.374960865926,1,1,1
"8070","Centre Island",31,26,3,1751972913,43.6185156948442,-79.3730330079146,1,1,1
"7704","24 Mountjoy Ave",19,7,12,1751972854,43.6804935028988,-79.3304455272138,1,1,1
"8010","Finch Ave W / Bathurst St",19,5,11,1751972945,43.772058606294,-79.4423237849184,1,1,1
"8050","Wilson Ave / Transit Rd (TTC Subway Station)",23,1,21,1751972891,43.7334589937537,-79.4533880689615,1,1,1
"8071","Gibraltar Point Beach",35,13,21,1751972898,43.613194,-79.387683,1,1,1
"7468","Front St W / Simcoe St",27,5,22,1751972959,43.6444800354339,-79.3869878134918,1,1,1
"8073","Finch Ave E / Midland Ave",15,0,15,1751972983,43.8035656501137,-79.2866960547241,1,1,1
"8074","Huntingwood Dr / Midland Ave",11,0,11,1751972915,43.7968497658419,-79.2843424594285,1,1,1
"8075","Marine Parade Dr / Humber Bay Shores Park Trl",19,6,12,1751972945,43.6264618250938,-79.4767510230207,1,1,1
"8076","Warden Ave / Huntingwood Dr",11,0,11,1751972862,43.7857168223487,-79.310810396049,1,1,1
"8077","Silver Springs Blvd / Birchmount Rd",10,0,9,1751972993,43.800737007917,-79.3067124214887,1,1,1
